{
"type": "FeatureCollection",
"crs": { "type": "name", "properties": { "name": "urn:ogc:def:crs:OGC:1.3:CRS84" } },
"features": [
{ "type": "Feature", "properties": { "city": "Lashkar Gah", "city_ascii": "Lashkar Gah", "lat": 31.58299802, "lng": 64.35999955, "pop": 201546.0, "country": "Afghanistan", "iso2": "AF", "iso3": "AFG", "province": "Hilmand" }, "geometry": { "type": "Point", "coordinates": [ 64.36, 31.583 ] } },
{ "type": "Feature", "properties": { "city": "Zaranj", "city_ascii": "Zaranj", "lat": 31.11200108, "lng": 61.88699752, "pop": 49851.0, "country": "Afghanistan", "iso2": "AF", "iso3": "AFG", "province": "Nimroz" }, "geometry": { "type": "Point", "coordinates": [ 61.887, 31.112 ] } },
{ "type": "Feature", "properties": { "city": "Asadabad", "city_ascii": "Asadabad", "lat": 34.86600004, "lng": 71.15000459, "pop": 48400.0, "country": "Afghanistan", "iso2": "AF", "iso3": "AFG", "province": "Kunar" }, "geometry": { "type": "Point", "coordinates": [ 71.15, 34.866 ] } },
{ "type": "Feature", "properties": { "city": "Taloqan", "city_ascii": "Taloqan", "lat": 36.72999904, "lng": 69.54000364, "pop": 64256.0, "country": "Afghanistan", "iso2": "AF", "iso3": "AFG", "province": "Takhar" }, "geometry": { "type": "Point", "coordinates": [ 69.54, 36.73 ] } },
{ "type": "Feature", "properties": { "city": "Baraki Barak", "city_ascii": "Baraki Barak", "lat": 33.9667021, "lng": 68.96670354, "pop": 22305.0, "country": "Afghanistan", "iso2": "AF", "iso3": "AFG", "province": "Logar" }, "geometry": { "type": "Point", "coordinates": [ 68.9667, 33.9667 ] } },
{ "type": "Feature", "properties": { "city": "Aybak", "city_ascii": "Aybak", "lat": 36.26100015, "lng": 68.04000051, "pop": 24000.0, "country": "Afghanistan", "iso2": "AF", "iso3": "AFG", "province": "Samangan" }, "geometry": { "type": "Point", "coordinates": [ 68.04, 36.261 ] } },
{ "type": "Feature", "properties": { "city": "Mayda Shahr", "city_ascii": "Mayda Shahr", "lat": 34.45000209, "lng": 68.79999663, "pop": 35008.0, "country": "Afghanistan", "iso2": "AF", "iso3": "AFG", "province": "Wardak" }, "geometry": { "type": "Point", "coordinates": [ 68.8, 34.45 ] } },
{ "type": "Feature", "properties": { "city": "Sheberghan", "city_ascii": "Sheberghan", "lat": 36.65798077, "lng": 65.73830237, "pop": 74441.0, "country": "Afghanistan", "iso2": "AF", "iso3": "AFG", "province": "Jawzjan" }, "geometry": { "type": "Point", "coordinates": [ 65.7383, 36.65798 ] } },
{ "type": "Feature", "properties": { "city": "Pol-e Khomri", "city_ascii": "Pol-e Khomri", "lat": 35.95107302, "lng": 68.70111894, "pop": 41029.0, "country": "Afghanistan", "iso2": "AF", "iso3": "AFG", "province": "Baghlan" }, "geometry": { "type": "Point", "coordinates": [ 68.70112, 35.95107 ] } },
{ "type": "Feature", "properties": { "city": "Balkh", "city_ascii": "Balkh", "lat": 36.75011985, "lng": 66.89973018000001, "pop": 147426.0, "country": "Afghanistan", "iso2": "AF", "iso3": "AFG", "province": "Balkh" }, "geometry": { "type": "Point", "coordinates": [ 66.89973, 36.75012 ] } },
{ "type": "Feature", "properties": { "city": "Meymaneh", "city_ascii": "Meymaneh", "lat": 35.93022158, "lng": 64.77009273, "pop": 199795.0, "country": "Afghanistan", "iso2": "AF", "iso3": "AFG", "province": "Faryab" }, "geometry": { "type": "Point", "coordinates": [ 64.77009, 35.93022 ] } },
{ "type": "Feature", "properties": { "city": "Andkhvoy", "city_ascii": "Andkhvoy", "lat": 36.93165916, "lng": 65.10149369, "pop": 50469.0, "country": "Afghanistan", "iso2": "AF", "iso3": "AFG", "province": "Faryab" }, "geometry": { "type": "Point", "coordinates": [ 65.10149, 36.93166 ] } },
{ "type": "Feature", "properties": { "city": "Ghazni", "city_ascii": "Ghazni", "lat": 33.56331179, "lng": 68.41782873, "pop": 129892.5, "country": "Afghanistan", "iso2": "AF", "iso3": "AFG", "province": "Ghazni" }, "geometry": { "type": "Point", "coordinates": [ 68.41783, 33.56331 ] } },
{ "type": "Feature", "properties": { "city": "Feyzabad", "city_ascii": "Feyzabad", "lat": 37.12976076, "lng": 70.57924719, "pop": 52490.0, "country": "Afghanistan", "iso2": "AF", "iso3": "AFG", "province": "Badakhshan" }, "geometry": { "type": "Point", "coordinates": [ 70.57925, 37.12976 ] } },
{ "type": "Feature", "properties": { "city": "Kondoz", "city_ascii": "Kondoz", "lat": 36.72795066, "lng": 68.87252966, "pop": 210855.5, "country": "Afghanistan", "iso2": "AF", "iso3": "AFG", "province": "Kunduz" }, "geometry": { "type": "Point", "coordinates": [ 68.87253, 36.72795 ] } },
{ "type": "Feature", "properties": { "city": "Jalalabad", "city_ascii": "Jalalabad", "lat": 34.44152692, "lng": 70.43610347000001, "pop": 401697.0, "country": "Afghanistan", "iso2": "AF", "iso3": "AFG", "province": "Nangarhar" }, "geometry": { "type": "Point", "coordinates": [ 70.4361, 34.44153 ] } },
{ "type": "Feature", "properties": { "city": "Charikar", "city_ascii": "Charikar", "lat": 35.01826174, "lng": 69.16791215000001, "pop": 53676.0, "country": "Afghanistan", "iso2": "AF", "iso3": "AFG", "province": "Parwan" }, "geometry": { "type": "Point", "coordinates": [ 69.16791, 35.01826 ] } },
{ "type": "Feature", "properties": { "city": "Gardiz", "city_ascii": "Gardiz", "lat": 33.60005373, "lng": 69.21462764, "pop": 82680.5, "country": "Afghanistan", "iso2": "AF", "iso3": "AFG", "province": "Paktya" }, "geometry": { "type": "Point", "coordinates": [ 69.21463, 33.60005 ] } },
{ "type": "Feature", "properties": { "city": "Bamian", "city_ascii": "Bamian", "lat": 34.82106447, "lng": 67.52103593, "pop": 61863.0, "country": "Afghanistan", "iso2": "AF", "iso3": "AFG", "province": "Bamyan" }, "geometry": { "type": "Point", "coordinates": [ 67.52104, 34.82106 ] } },
{ "type": "Feature", "properties": { "city": "Baghlan", "city_ascii": "Baghlan", "lat": 36.13933026, "lng": 68.69925858000001, "pop": 163598.5, "country": "Afghanistan", "iso2": "AF", "iso3": "AFG", "province": "Baghlan" }, "geometry": { "type": "Point", "coordinates": [ 68.69926, 36.13933 ] } },
{ "type": "Feature", "properties": { "city": "Farah", "city_ascii": "Farah", "lat": 32.39172955, "lng": 62.09681921, "pop": 58604.0, "country": "Afghanistan", "iso2": "AF", "iso3": "AFG", "province": "Farah" }, "geometry": { "type": "Point", "coordinates": [ 62.09682, 32.39173 ] } },
{ "type": "Feature", "properties": { "city": "Herat", "city_ascii": "Herat", "lat": 34.33000917, "lng": 62.16999304, "pop": 439232.5, "country": "Afghanistan", "iso2": "AF", "iso3": "AFG", "province": "Hirat" }, "geometry": { "type": "Point", "coordinates": [ 62.16999, 34.33001 ] } },
{ "type": "Feature", "properties": { "city": "Mazar-e Sharif", "city_ascii": "Mazar-e Sharif", "lat": 36.69999371, "lng": 67.10002803, "pop": 365432.5, "country": "Afghanistan", "iso2": "AF", "iso3": "AFG", "province": "Balkh" }, "geometry": { "type": "Point", "coordinates": [ 67.10003, 36.69999 ] } },
{ "type": "Feature", "properties": { "city": "Kandahar", "city_ascii": "Kandahar", "lat": 31.61002016, "lng": 65.69494584, "pop": 613871.0, "country": "Afghanistan", "iso2": "AF", "iso3": "AFG", "province": "Kandahar" }, "geometry": { "type": "Point", "coordinates": [ 65.69495, 31.61002 ] } },
{ "type": "Feature", "properties": { "city": "Kabul", "city_ascii": "Kabul", "lat": 34.51669029, "lng": 69.18326005, "pop": 3160266.0, "country": "Afghanistan", "iso2": "AF", "iso3": "AFG", "province": "Kabul" }, "geometry": { "type": "Point", "coordinates": [ 69.18326, 34.51669 ] } },
{ "type": "Feature", "properties": { "city": "Kruje", "city_ascii": "Kruje", "lat": 41.51899817, "lng": 19.79700359, "pop": 21286.0, "country": "Albania", "iso2": "AL", "iso3": "ALB", "province": "Durrës" }, "geometry": { "type": "Point", "coordinates": [ 19.797, 41.519 ] } },
{ "type": "Feature", "properties": { "city": "Fier", "city_ascii": "Fier", "lat": 40.73000402, "lng": 19.5730026, "pop": 69747.5, "country": "Albania", "iso2": "AL", "iso3": "ALB", "province": "Fier" }, "geometry": { "type": "Point", "coordinates": [ 19.573, 40.73 ] } },
{ "type": "Feature", "properties": { "city": "Lushnje", "city_ascii": "Lushnje", "lat": 40.94000113, "lng": 19.71600348, "pop": 41469.0, "country": "Albania", "iso2": "AL", "iso3": "ALB", "province": "Fier" }, "geometry": { "type": "Point", "coordinates": [ 19.716, 40.94 ] } },
{ "type": "Feature", "properties": { "city": "Pogradec", "city_ascii": "Pogradec", "lat": 40.89999612, "lng": 20.66400062, "pop": 35000.0, "country": "Albania", "iso2": "AL", "iso3": "ALB", "province": "Korçë" }, "geometry": { "type": "Point", "coordinates": [ 20.664, 40.9 ] } },
{ "type": "Feature", "properties": { "city": "Korce", "city_ascii": "Korce", "lat": 40.61667601, "lng": 20.76666353, "pop": 58259.0, "country": "Albania", "iso2": "AL", "iso3": "ALB", "province": "Korçë" }, "geometry": { "type": "Point", "coordinates": [ 20.76666, 40.61668 ] } },
{ "type": "Feature", "properties": { "city": "Berat", "city_ascii": "Berat", "lat": 40.70999705, "lng": 19.97199958, "pop": 46866.0, "country": "Albania", "iso2": "AL", "iso3": "ALB", "province": "Berat" }, "geometry": { "type": "Point", "coordinates": [ 19.972, 40.71 ] } },
{ "type": "Feature", "properties": { "city": "Gjirokaster", "city_ascii": "Gjirokaster", "lat": 40.07899809, "lng": 20.14900256, "pop": 23437.0, "country": "Albania", "iso2": "AL", "iso3": "ALB", "province": "Gjirokastër" }, "geometry": { "type": "Point", "coordinates": [ 20.149, 40.079 ] } },
{ "type": "Feature", "properties": { "city": "Vlore", "city_ascii": "Vlore", "lat": 40.47736005, "lng": 19.49823075, "pop": 89508.5, "country": "Albania", "iso2": "AL", "iso3": "ALB", "province": "Vlorë" }, "geometry": { "type": "Point", "coordinates": [ 19.49823, 40.47736 ] } },
{ "type": "Feature", "properties": { "city": "Elbasan", "city_ascii": "Elbasan", "lat": 41.12150677, "lng": 20.08382808, "pop": 132956.5, "country": "Albania", "iso2": "AL", "iso3": "ALB", "province": "Elbasan" }, "geometry": { "type": "Point", "coordinates": [ 20.08383, 41.12151 ] } },
{ "type": "Feature", "properties": { "city": "Durres", "city_ascii": "Durres", "lat": 41.3177997, "lng": 19.44820797, "pop": 132233.0, "country": "Albania", "iso2": "AL", "iso3": "ALB", "province": "Durrës" }, "geometry": { "type": "Point", "coordinates": [ 19.44821, 41.3178 ] } },
{ "type": "Feature", "properties": { "city": "Shkoder", "city_ascii": "Shkoder", "lat": 42.06845156, "lng": 19.51884965, "pop": 122006.0, "country": "Albania", "iso2": "AL", "iso3": "ALB", "province": "Shkodër" }, "geometry": { "type": "Point", "coordinates": [ 19.51885, 42.06845 ] } },
{ "type": "Feature", "properties": { "city": "Tirana", "city_ascii": "Tirana", "lat": 41.32754071, "lng": 19.81888301, "pop": 658318.0, "country": "Albania", "iso2": "AL", "iso3": "ALB", "province": "Durrës" }, "geometry": { "type": "Point", "coordinates": [ 19.81888, 41.32754 ] } },
{ "type": "Feature", "properties": { "city": "Jijel", "city_ascii": "Jijel", "lat": 36.82199703, "lng": 5.76600356, "pop": 148000.0, "country": "Algeria", "iso2": "DZ", "iso3": "DZA", "province": "Jijel" }, "geometry": { "type": "Point", "coordinates": [ 5.766, 36.822 ] } },
{ "type": "Feature", "properties": { "city": "Tizi-Ouzou", "city_ascii": "Tizi-Ouzou", "lat": 36.80000111, "lng": 4.033332556, "pop": 144000.0, "country": "Algeria", "iso2": "DZ", "iso3": "DZA", "province": "Tizi Ouzou" }, "geometry": { "type": "Point", "coordinates": [ 4.03333, 36.8 ] } },
{ "type": "Feature", "properties": { "city": "Bordj Bou Arreridj", "city_ascii": "Bordj Bou Arreridj", "lat": 36.05900401, "lng": 4.629996466, "pop": 134500.0, "country": "Algeria", "iso2": "DZ", "iso3": "DZA", "province": "Bordj Bou Arréridj" }, "geometry": { "type": "Point", "coordinates": [ 4.63, 36.059 ] } },
{ "type": "Feature", "properties": { "city": "M'sila", "city_ascii": "M'sila", "lat": 35.7000031, "lng": 4.545000584, "pop": 125000.0, "country": "Algeria", "iso2": "DZ", "iso3": "DZA", "province": "M'Sila" }, "geometry": { "type": "Point", "coordinates": [ 4.545, 35.7 ] } },
{ "type": "Feature", "properties": { "city": "Guelma", "city_ascii": "Guelma", "lat": 36.46600213, "lng": 7.427997486, "pop": 123590.0, "country": "Algeria", "iso2": "DZ", "iso3": "DZA", "province": "Guelma" }, "geometry": { "type": "Point", "coordinates": [ 7.428, 36.466 ] } },
{ "type": "Feature", "properties": { "city": "Oum el Bouaghi", "city_ascii": "Oum el Bouaghi", "lat": 35.84999715, "lng": 7.149996522, "pop": 100821.0, "country": "Algeria", "iso2": "DZ", "iso3": "DZA", "province": "Oum el Bouaghi" }, "geometry": { "type": "Point", "coordinates": [ 7.15, 35.85 ] } },
{ "type": "Feature", "properties": { "city": "Timimoun", "city_ascii": "Timimoun", "lat": 29.23652163, "lng": 0.269998737, "pop": 26568.0, "country": "Algeria", "iso2": "DZ", "iso3": "DZA", "province": "Adrar" }, "geometry": { "type": "Point", "coordinates": [ 0.27, 29.23652 ] } },
{ "type": "Feature", "properties": { "city": "Sidi bel Abbes", "city_ascii": "Sidi bel Abbes", "lat": 35.19034426, "lng": -0.639971559, "pop": 200186.5, "country": "Algeria", "iso2": "DZ", "iso3": "DZA", "province": "Sidi Bel Abbès" }, "geometry": { "type": "Point", "coordinates": [ -0.63997, 35.19034 ] } },
{ "type": "Feature", "properties": { "city": "Tlimcen", "city_ascii": "Tlimcen", "lat": 34.89041424, "lng": -1.32000757, "pop": 181059.0, "country": "Algeria", "iso2": "DZ", "iso3": "DZA", "province": "Tlemcen" }, "geometry": { "type": "Point", "coordinates": [ -1.32001, 34.89041 ] } },
{ "type": "Feature", "properties": { "city": "Sefra", "city_ascii": "Sefra", "lat": 32.76041506, "lng": -0.579949383, "pop": 51118.0, "country": "Algeria", "iso2": "DZ", "iso3": "DZA", "province": "Naâma" }, "geometry": { "type": "Point", "coordinates": [ -0.57995, 32.76042 ] } },
{ "type": "Feature", "properties": { "city": "Skikda", "city_ascii": "Skikda", "lat": 36.88042198, "lng": 6.899981647, "pop": 193941.5, "country": "Algeria", "iso2": "DZ", "iso3": "DZA", "province": "Skikda" }, "geometry": { "type": "Point", "coordinates": [ 6.89998, 36.88042 ] } },
{ "type": "Feature", "properties": { "city": "El Bayadh", "city_ascii": "El Bayadh", "lat": 33.6903583, "lng": 1.009953571, "pop": 67413.0, "country": "Algeria", "iso2": "DZ", "iso3": "DZA", "province": "El Bayadh" }, "geometry": { "type": "Point", "coordinates": [ 1.00995, 33.69036 ] } },
{ "type": "Feature", "properties": { "city": "El Oued", "city_ascii": "El Oued", "lat": 33.37040367, "lng": 6.859984089, "pop": 177497.0, "country": "Algeria", "iso2": "DZ", "iso3": "DZA", "province": "Biskra" }, "geometry": { "type": "Point", "coordinates": [ 6.85998, 33.3704 ] } },
{ "type": "Feature", "properties": { "city": "Chlef", "city_ascii": "Chlef", "lat": 36.17041363, "lng": 1.319960489, "pop": 449167.0, "country": "Algeria", "iso2": "DZ", "iso3": "DZA", "province": "Chlef" }, "geometry": { "type": "Point", "coordinates": [ 1.31996, 36.17041 ] } },
{ "type": "Feature", "properties": { "city": "Mascara", "city_ascii": "Mascara", "lat": 35.40040895, "lng": 0.14003251, "pop": 108230.0, "country": "Algeria", "iso2": "DZ", "iso3": "DZA", "province": "Mascara" }, "geometry": { "type": "Point", "coordinates": [ 0.14003, 35.40041 ] } },
{ "type": "Feature", "properties": { "city": "Mostaganem", "city_ascii": "Mostaganem", "lat": 35.940376, "lng": 0.089983885, "pop": 159177.0, "country": "Algeria", "iso2": "DZ", "iso3": "DZA", "province": "Mostaganem" }, "geometry": { "type": "Point", "coordinates": [ 0.08998, 35.94038 ] } },
{ "type": "Feature", "properties": { "city": "Saida", "city_ascii": "Saida", "lat": 34.84039146, "lng": 0.14003251, "pop": 134855.0, "country": "Algeria", "iso2": "DZ", "iso3": "DZA", "province": "Saïda" }, "geometry": { "type": "Point", "coordinates": [ 0.14003, 34.84039 ] } },
{ "type": "Feature", "properties": { "city": "Tiarat", "city_ascii": "Tiarat", "lat": 35.38043601, "lng": 1.319960489, "pop": 184195.0, "country": "Algeria", "iso2": "DZ", "iso3": "DZA", "province": "Tiaret" }, "geometry": { "type": "Point", "coordinates": [ 1.31996, 35.38044 ] } },
{ "type": "Feature", "properties": { "city": "Bejaia", "city_ascii": "Bejaia", "lat": 36.76037762, "lng": 5.070015827, "pop": 274520.0, "country": "Algeria", "iso2": "DZ", "iso3": "DZA", "province": "Béjaïa" }, "geometry": { "type": "Point", "coordinates": [ 5.07002, 36.76038 ] } },
{ "type": "Feature", "properties": { "city": "Blida", "city_ascii": "Blida", "lat": 36.4203467, "lng": 2.829997517, "pop": 388174.0, "country": "Algeria", "iso2": "DZ", "iso3": "DZA", "province": "Blida" }, "geometry": { "type": "Point", "coordinates": [ 2.83, 36.42035 ] } },
{ "type": "Feature", "properties": { "city": "Bouira", "city_ascii": "Bouira", "lat": 36.38047833, "lng": 3.900009724, "pop": 110144.0, "country": "Algeria", "iso2": "DZ", "iso3": "DZA", "province": "Bouira" }, "geometry": { "type": "Point", "coordinates": [ 3.90001, 36.38048 ] } },
{ "type": "Feature", "properties": { "city": "Medea", "city_ascii": "Medea", "lat": 36.27040753, "lng": 2.770001179, "pop": 145863.5, "country": "Algeria", "iso2": "DZ", "iso3": "DZA", "province": "Médéa" }, "geometry": { "type": "Point", "coordinates": [ 2.77, 36.27041 ] } },
{ "type": "Feature", "properties": { "city": "Souk Ahras", "city_ascii": "Souk Ahras", "lat": 36.29038047, "lng": 7.949995075, "pop": 134947.0, "country": "Algeria", "iso2": "DZ", "iso3": "DZA", "province": "Souk Ahras" }, "geometry": { "type": "Point", "coordinates": [ 7.95, 36.29038 ] } },
{ "type": "Feature", "properties": { "city": "Tebessa", "city_ascii": "Tebessa", "lat": 35.41043418, "lng": 8.120010537000001, "pop": 171742.0, "country": "Algeria", "iso2": "DZ", "iso3": "DZA", "province": "Tébessa" }, "geometry": { "type": "Point", "coordinates": [ 8.12001, 35.41043 ] } },
{ "type": "Feature", "properties": { "city": "Adrar", "city_ascii": "Adrar", "lat": 27.86999005, "lng": -0.289967083, "pop": 56910.0, "country": "Algeria", "iso2": "DZ", "iso3": "DZA", "province": "Adrar" }, "geometry": { "type": "Point", "coordinates": [ -0.28997, 27.86999 ] } },
{ "type": "Feature", "properties": { "city": "Reggane", "city_ascii": "Reggane", "lat": 26.69998395, "lng": 0.166645873, "pop": 22351.5, "country": "Algeria", "iso2": "DZ", "iso3": "DZA", "province": "Adrar" }, "geometry": { "type": "Point", "coordinates": [ 0.16665, 26.69998 ] } },
{ "type": "Feature", "properties": { "city": "Bechar", "city_ascii": "Bechar", "lat": 31.61110537, "lng": -2.230003704, "pop": 142415.5, "country": "Algeria", "iso2": "DZ", "iso3": "DZA", "province": "Béchar" }, "geometry": { "type": "Point", "coordinates": [ -2.23, 31.61111 ] } },
{ "type": "Feature", "properties": { "city": "Arak", "city_ascii": "Arak", "lat": 25.2799931, "lng": 3.749993041, "pop": 423251.0, "country": "Algeria", "iso2": "DZ", "iso3": "DZA", "province": "Tamanghasset" }, "geometry": { "type": "Point", "coordinates": [ 3.74999, 25.27999 ] } },
{ "type": "Feature", "properties": { "city": "I-n-Salah", "city_ascii": "I-n-Salah", "lat": 27.21664492, "lng": 2.466608845, "pop": 28632.0, "country": "Algeria", "iso2": "DZ", "iso3": "DZA", "province": "Tamanghasset" }, "geometry": { "type": "Point", "coordinates": [ 2.46661, 27.21664 ] } },
{ "type": "Feature", "properties": { "city": "El Golea", "city_ascii": "El Golea", "lat": 30.56662132, "lng": 2.883327595, "pop": 32049.0, "country": "Algeria", "iso2": "DZ", "iso3": "DZA", "province": "Ghardaïa" }, "geometry": { "type": "Point", "coordinates": [ 2.88333, 30.56662 ] } },
{ "type": "Feature", "properties": { "city": "Laghouat", "city_ascii": "Laghouat", "lat": 33.80998924, "lng": 2.880020303, "pop": 108279.0, "country": "Algeria", "iso2": "DZ", "iso3": "DZA", "province": "Laghouat" }, "geometry": { "type": "Point", "coordinates": [ 2.88002, 33.80999 ] } },
{ "type": "Feature", "properties": { "city": "Touggourt", "city_ascii": "Touggourt", "lat": 33.0999809, "lng": 6.05998124, "pop": 91499.0, "country": "Algeria", "iso2": "DZ", "iso3": "DZA", "province": "Ouargla" }, "geometry": { "type": "Point", "coordinates": [ 6.05998, 33.09998 ] } },
{ "type": "Feature", "properties": { "city": "Ouargla", "city_ascii": "Ouargla", "lat": 31.96997235, "lng": 5.340025186, "pop": 176271.0, "country": "Algeria", "iso2": "DZ", "iso3": "DZA", "province": "Ouargla" }, "geometry": { "type": "Point", "coordinates": [ 5.34003, 31.96997 ] } },
{ "type": "Feature", "properties": { "city": "Biskra", "city_ascii": "Biskra", "lat": 34.85997683, "lng": 5.73002722, "pop": 202103.0, "country": "Algeria", "iso2": "DZ", "iso3": "DZA", "province": "Biskra" }, "geometry": { "type": "Point", "coordinates": [ 5.73003, 34.85998 ] } },
{ "type": "Feature", "properties": { "city": "Djelfa", "city_ascii": "Djelfa", "lat": 34.67998781, "lng": 3.250023558, "pop": 170901.0, "country": "Algeria", "iso2": "DZ", "iso3": "DZA", "province": "Djelfa" }, "geometry": { "type": "Point", "coordinates": [ 3.25002, 34.67999 ] } },
{ "type": "Feature", "properties": { "city": "Setif", "city_ascii": "Setif", "lat": 36.18002545, "lng": 5.399969847, "pop": 274744.0, "country": "Algeria", "iso2": "DZ", "iso3": "DZA", "province": "Sétif" }, "geometry": { "type": "Point", "coordinates": [ 5.39997, 36.18003 ] } },
{ "type": "Feature", "properties": { "city": "Batna", "city_ascii": "Batna", "lat": 35.56995933, "lng": 6.170000365, "pop": 269467.0, "country": "Algeria", "iso2": "DZ", "iso3": "DZA", "province": "Batna" }, "geometry": { "type": "Point", "coordinates": [ 6.17, 35.56996 ] } },
{ "type": "Feature", "properties": { "city": "Annaba", "city_ascii": "Annaba", "lat": 36.92000612, "lng": 7.759980834, "pop": 355047.0, "country": "Algeria", "iso2": "DZ", "iso3": "DZA", "province": "Annaba" }, "geometry": { "type": "Point", "coordinates": [ 7.75998, 36.92001 ] } },
{ "type": "Feature", "properties": { "city": "Constantine", "city_ascii": "Constantine", "lat": 36.35998863, "lng": 6.599948281, "pop": 527638.0, "country": "Algeria", "iso2": "DZ", "iso3": "DZA", "province": "Constantine" }, "geometry": { "type": "Point", "coordinates": [ 6.59995, 36.35999 ] } },
{ "type": "Feature", "properties": { "city": "Oran", "city_ascii": "Oran", "lat": 35.71000246, "lng": -0.61997278, "pop": 721992.0, "country": "Algeria", "iso2": "DZ", "iso3": "DZA", "province": "Oran" }, "geometry": { "type": "Point", "coordinates": [ -0.61997, 35.71 ] } },
{ "type": "Feature", "properties": { "city": "Tamanrasset", "city_ascii": "Tamanrasset", "lat": 22.78500327, "lng": 5.522804727, "pop": 71808.0, "country": "Algeria", "iso2": "DZ", "iso3": "DZA", "province": "Tamanghasset" }, "geometry": { "type": "Point", "coordinates": [ 5.5228, 22.785 ] } },
{ "type": "Feature", "properties": { "city": "Ghardaia", "city_ascii": "Ghardaia", "lat": 32.48999229, "lng": 3.669997923, "pop": 125480.0, "country": "Algeria", "iso2": "DZ", "iso3": "DZA", "province": "Ghardaïa" }, "geometry": { "type": "Point", "coordinates": [ 3.67, 32.48999 ] } },
{ "type": "Feature", "properties": { "city": "Algiers", "city_ascii": "Algiers", "lat": 36.7630648, "lng": 3.05055253, "pop": 2665831.5, "country": "Algeria", "iso2": "DZ", "iso3": "DZA", "province": "Alger" }, "geometry": { "type": "Point", "coordinates": [ 3.05055, 36.76306 ] } },
{ "type": "Feature", "properties": { "city": "Andorra", "city_ascii": "Andorra", "lat": 42.50000144, "lng": 1.516485961, "pop": 38127.0, "country": "Andorra", "iso2": "AD", "iso3": "AND", "province": null }, "geometry": { "type": "Point", "coordinates": [ 1.51649, 42.5 ] } },
{ "type": "Feature", "properties": { "city": "Lucapa", "city_ascii": "Lucapa", "lat": -8.419603659, "lng": 20.74001542, "pop": 25578.0, "country": "Angola", "iso2": "AO", "iso3": "AGO", "province": "Lunda Norte" }, "geometry": { "type": "Point", "coordinates": [ 20.74002, -8.4196 ] } },
{ "type": "Feature", "properties": { "city": "Capenda-Camulemba", "city_ascii": "Capenda-Camulemba", "lat": -9.4195943, "lng": 18.43002722, "pop": 79842.5, "country": "Angola", "iso2": "AO", "iso3": "AGO", "province": "Lunda Norte" }, "geometry": { "type": "Point", "coordinates": [ 18.43003, -9.41959 ] } },
{ "type": "Feature", "properties": { "city": "Saurimo", "city_ascii": "Saurimo", "lat": -9.659579652, "lng": 20.39001094, "pop": 40907.0, "country": "Angola", "iso2": "AO", "iso3": "AGO", "province": "Lunda Sul" }, "geometry": { "type": "Point", "coordinates": [ 20.39001, -9.65958 ] } },
{ "type": "Feature", "properties": { "city": "Mbanza-Congo", "city_ascii": "Mbanza-Congo", "lat": -6.269605694, "lng": 14.23999874, "pop": 42201.0, "country": "Angola", "iso2": "AO", "iso3": "AGO", "province": "Zaire" }, "geometry": { "type": "Point", "coordinates": [ 14.24, -6.26961 ] } },
{ "type": "Feature", "properties": { "city": "Soyo", "city_ascii": "Soyo", "lat": -6.129614239, "lng": 12.36998368, "pop": 65329.0, "country": "Angola", "iso2": "AO", "iso3": "AGO", "province": "Zaire" }, "geometry": { "type": "Point", "coordinates": [ 12.36998, -6.12961 ] } },
{ "type": "Feature", "properties": { "city": "Cabinda", "city_ascii": "Cabinda", "lat": -5.55962319, "lng": 12.18999467, "pop": 78905.5, "country": "Angola", "iso2": "AO", "iso3": "AGO", "province": "Cabinda" }, "geometry": { "type": "Point", "coordinates": [ 12.18999, -5.55962 ] } },
{ "type": "Feature", "properties": { "city": "Mavinga", "city_ascii": "Mavinga", "lat": -15.7895414, "lng": 20.36003861, "pop": 30000.0, "country": "Angola", "iso2": "AO", "iso3": "AGO", "province": "Cuando Cubango" }, "geometry": { "type": "Point", "coordinates": [ 20.36004, -15.78954 ] } },
{ "type": "Feature", "properties": { "city": "Sumbe", "city_ascii": "Sumbe", "lat": -11.21002765, "lng": 13.8499967, "pop": 29638.5, "country": "Angola", "iso2": "AO", "iso3": "AGO", "province": "Cuanza Sul" }, "geometry": { "type": "Point", "coordinates": [ 13.85, -11.21003 ] } },
{ "type": "Feature", "properties": { "city": "Uige", "city_ascii": "Uige", "lat": -7.620014222, "lng": 15.04997514, "pop": 56787.5, "country": "Angola", "iso2": "AO", "iso3": "AGO", "province": "Uíge" }, "geometry": { "type": "Point", "coordinates": [ 15.04998, -7.62001 ] } },
{ "type": "Feature", "properties": { "city": "Kuito", "city_ascii": "Kuito", "lat": -12.38003375, "lng": 16.93998897, "pop": 113955.0, "country": "Angola", "iso2": "AO", "iso3": "AGO", "province": "Bié" }, "geometry": { "type": "Point", "coordinates": [ 16.93999, -12.38003 ] } },
{ "type": "Feature", "properties": { "city": "Lobito", "city_ascii": "Lobito", "lat": -12.37000853, "lng": 13.54123002, "pop": 170733.0, "country": "Angola", "iso2": "AO", "iso3": "AGO", "province": "Benguela" }, "geometry": { "type": "Point", "coordinates": [ 13.54123, -12.37001 ] } },
{ "type": "Feature", "properties": { "city": "Tômbua", "city_ascii": "Tombua", "lat": -15.80003172, "lng": 11.85998897, "pop": 40000.0, "country": "Angola", "iso2": "AO", "iso3": "AGO", "province": "Namibe" }, "geometry": { "type": "Point", "coordinates": [ 11.85999, -15.80003 ] } },
{ "type": "Feature", "properties": { "city": "Malanje", "city_ascii": "Malanje", "lat": -9.540000388, "lng": 16.34002559, "pop": 106451.0, "country": "Angola", "iso2": "AO", "iso3": "AGO", "province": "Malanje" }, "geometry": { "type": "Point", "coordinates": [ 16.34003, -9.54 ] } },
{ "type": "Feature", "properties": { "city": "Benguela", "city_ascii": "Benguela", "lat": -12.57826455, "lng": 13.40723303, "pop": 142017.0, "country": "Angola", "iso2": "AO", "iso3": "AGO", "province": "Benguela" }, "geometry": { "type": "Point", "coordinates": [ 13.40723, -12.57826 ] } },
{ "type": "Feature", "properties": { "city": "Lubango", "city_ascii": "Lubango", "lat": -14.91000853, "lng": 13.49001868, "pop": 114086.5, "country": "Angola", "iso2": "AO", "iso3": "AGO", "province": "Huíla" }, "geometry": { "type": "Point", "coordinates": [ 13.49002, -14.91001 ] } },
{ "type": "Feature", "properties": { "city": "Namibe", "city_ascii": "Namibe", "lat": -15.19004311, "lng": 12.16002234, "pop": 128130.5, "country": "Angola", "iso2": "AO", "iso3": "AGO", "province": "Namibe" }, "geometry": { "type": "Point", "coordinates": [ 12.16002, -15.19004 ] } },
{ "type": "Feature", "properties": { "city": "Huambo", "city_ascii": "Huambo", "lat": -12.74998533, "lng": 15.76000932, "pop": 986000.0, "country": "Angola", "iso2": "AO", "iso3": "AGO", "province": "Huambo" }, "geometry": { "type": "Point", "coordinates": [ 15.76001, -12.74999 ] } },
{ "type": "Feature", "properties": { "city": "Luanda", "city_ascii": "Luanda", "lat": -8.838286114000001, "lng": 13.23442704, "pop": 3562086.0, "country": "Angola", "iso2": "AO", "iso3": "AGO", "province": "Luanda" }, "geometry": { "type": "Point", "coordinates": [ 13.23443, -8.83829 ] } },
{ "type": "Feature", "properties": { "city": "Saint John's", "city_ascii": "Saint John's", "lat": 17.11803652, "lng": -61.85003382, "pop": 29862.5, "country": "Antigua and Barbuda", "iso2": "AG", "iso3": "ATG", "province": null }, "geometry": { "type": "Point", "coordinates": [ -61.85003, 17.11804 ] } },
{ "type": "Feature", "properties": { "city": "Puerto Madryn", "city_ascii": "Puerto Madryn", "lat": -42.77001341, "lng": -65.04001998, "pop": 61159.0, "country": "Argentina", "iso2": "AR", "iso3": "ARG", "province": "Chubut" }, "geometry": { "type": "Point", "coordinates": [ -65.04002, -42.77001 ] } },
{ "type": "Feature", "properties": { "city": "Trelew", "city_ascii": "Trelew", "lat": -43.25003579, "lng": -65.3299506, "pop": 93128.5, "country": "Argentina", "iso2": "AR", "iso3": "ARG", "province": "Chubut" }, "geometry": { "type": "Point", "coordinates": [ -65.32995, -43.25004 ] } },
{ "type": "Feature", "properties": { "city": "Las Heras", "city_ascii": "Las Heras", "lat": -32.82503904, "lng": -68.80167668, "pop": 66663.0, "country": "Argentina", "iso2": "AR", "iso3": "ARG", "province": "Mendoza" }, "geometry": { "type": "Point", "coordinates": [ -68.80168, -32.82504 ] } },
{ "type": "Feature", "properties": { "city": "San Martin", "city_ascii": "San Martin", "lat": -33.06998533, "lng": -68.49001612000001, "pop": 99974.0, "country": "Argentina", "iso2": "AR", "iso3": "ARG", "province": "Mendoza" }, "geometry": { "type": "Point", "coordinates": [ -68.49002, -33.06999 ] } },
{ "type": "Feature", "properties": { "city": "Cutral Co", "city_ascii": "Cutral Co", "lat": -38.94001463, "lng": -69.24002202, "pop": 47597.0, "country": "Argentina", "iso2": "AR", "iso3": "ARG", "province": "Neuquén" }, "geometry": { "type": "Point", "coordinates": [ -69.24002, -38.94001 ] } },
{ "type": "Feature", "properties": { "city": "Punta Alta", "city_ascii": "Punta Alta", "lat": -38.87996662, "lng": -62.0799681, "pop": 55969.5, "country": "Argentina", "iso2": "AR", "iso3": "ARG", "province": "Ciudad de Buenos Aires" }, "geometry": { "type": "Point", "coordinates": [ -62.07997, -38.87997 ] } },
{ "type": "Feature", "properties": { "city": "San Nicolas", "city_ascii": "San Nicolas", "lat": -33.33002114, "lng": -60.24000289, "pop": 117123.5, "country": "Argentina", "iso2": "AR", "iso3": "ARG", "province": "Ciudad de Buenos Aires" }, "geometry": { "type": "Point", "coordinates": [ -60.24, -33.33002 ] } },
{ "type": "Feature", "properties": { "city": "Campana", "city_ascii": "Campana", "lat": -34.15999632, "lng": -58.95997766, "pop": 77149.5, "country": "Argentina", "iso2": "AR", "iso3": "ARG", "province": "Ciudad de Buenos Aires" }, "geometry": { "type": "Point", "coordinates": [ -58.95998, -34.16 ] } },
{ "type": "Feature", "properties": { "city": "Chacabuco", "city_ascii": "Chacabuco", "lat": -34.65004393, "lng": -60.48998763, "pop": 26645.0, "country": "Argentina", "iso2": "AR", "iso3": "ARG", "province": "Ciudad de Buenos Aires" }, "geometry": { "type": "Point", "coordinates": [ -60.48999, -34.65004 ] } },
{ "type": "Feature", "properties": { "city": "Mercedes", "city_ascii": "Mercedes", "lat": -34.66001748, "lng": -59.44002588, "pop": 48408.5, "country": "Argentina", "iso2": "AR", "iso3": "ARG", "province": "Ciudad de Buenos Aires" }, "geometry": { "type": "Point", "coordinates": [ -59.44003, -34.66002 ] } },
{ "type": "Feature", "properties": { "city": "Chivilcoy", "city_ascii": "Chivilcoy", "lat": -34.89995115, "lng": -60.03998926, "pop": 43719.0, "country": "Argentina", "iso2": "AR", "iso3": "ARG", "province": "Ciudad de Buenos Aires" }, "geometry": { "type": "Point", "coordinates": [ -60.03999, -34.89995 ] } },
{ "type": "Feature", "properties": { "city": "Nueve de Julio", "city_ascii": "Nueve de Julio", "lat": -35.44596434, "lng": -60.88998906, "pop": 26716.0, "country": "Argentina", "iso2": "AR", "iso3": "ARG", "province": "Ciudad de Buenos Aires" }, "geometry": { "type": "Point", "coordinates": [ -60.88999, -35.44596 ] } },
{ "type": "Feature", "properties": { "city": "Dolores", "city_ascii": "Dolores", "lat": -36.33004474, "lng": -57.68997766, "pop": 21586.5, "country": "Argentina", "iso2": "AR", "iso3": "ARG", "province": "Ciudad de Buenos Aires" }, "geometry": { "type": "Point", "coordinates": [ -57.68998, -36.33004 ] } },
{ "type": "Feature", "properties": { "city": "Tres Arroyos", "city_ascii": "Tres Arroyos", "lat": -38.3699719, "lng": -60.26994938, "pop": 34773.5, "country": "Argentina", "iso2": "AR", "iso3": "ARG", "province": "Ciudad de Buenos Aires" }, "geometry": { "type": "Point", "coordinates": [ -60.26995, -38.36997 ] } },
{ "type": "Feature", "properties": { "city": "Coronel Suarez", "city_ascii": "Coronel Suarez", "lat": -37.46661619, "lng": -61.9166189, "pop": 20713.0, "country": "Argentina", "iso2": "AR", "iso3": "ARG", "province": "Ciudad de Buenos Aires" }, "geometry": { "type": "Point", "coordinates": [ -61.91662, -37.46662 ] } },
{ "type": "Feature", "properties": { "city": "General Roca", "city_ascii": "General Roca", "lat": -39.01995807, "lng": -67.60996647, "pop": 38578.0, "country": "Argentina", "iso2": "AR", "iso3": "ARG", "province": "Río Negro" }, "geometry": { "type": "Point", "coordinates": [ -67.60997, -39.01996 ] } },
{ "type": "Feature", "properties": { "city": "San Francisco", "city_ascii": "San Francisco", "lat": -31.43003375, "lng": -62.08996749, "pop": 43231.0, "country": "Argentina", "iso2": "AR", "iso3": "ARG", "province": "Córdoba" }, "geometry": { "type": "Point", "coordinates": [ -62.08997, -31.43003 ] } },
{ "type": "Feature", "properties": { "city": "Alta Gracia", "city_ascii": "Alta Gracia", "lat": -31.65999388, "lng": -64.4299797, "pop": 30593.0, "country": "Argentina", "iso2": "AR", "iso3": "ARG", "province": "Córdoba" }, "geometry": { "type": "Point", "coordinates": [ -64.42998, -31.65999 ] } },
{ "type": "Feature", "properties": { "city": "Villa Maria", "city_ascii": "Villa Maria", "lat": -32.41002562, "lng": -63.26002527, "pop": 76701.0, "country": "Argentina", "iso2": "AR", "iso3": "ARG", "province": "Córdoba" }, "geometry": { "type": "Point", "coordinates": [ -63.26003, -32.41003 ] } },
{ "type": "Feature", "properties": { "city": "Bell Ville", "city_ascii": "Bell Ville", "lat": -32.60003986, "lng": -62.67995732, "pop": 29605.0, "country": "Argentina", "iso2": "AR", "iso3": "ARG", "province": "Córdoba" }, "geometry": { "type": "Point", "coordinates": [ -62.67996, -32.60004 ] } },
{ "type": "Feature", "properties": { "city": "Villa Carlos Paz", "city_ascii": "Villa Carlos Paz", "lat": -31.42000853, "lng": -64.50000126, "pop": 60256.0, "country": "Argentina", "iso2": "AR", "iso3": "ARG", "province": "Córdoba" }, "geometry": { "type": "Point", "coordinates": [ -64.5, -31.42001 ] } },
{ "type": "Feature", "properties": { "city": "Yacuiba", "city_ascii": "Yacuiba", "lat": -22.03003904, "lng": -63.69999841, "pop": 64811.0, "country": "Argentina", "iso2": "AR", "iso3": "ARG", "province": "Salta" }, "geometry": { "type": "Point", "coordinates": [ -63.7, -22.03004 ] } },
{ "type": "Feature", "properties": { "city": "Tartagal", "city_ascii": "Tartagal", "lat": -22.55000731, "lng": -63.81001754, "pop": 59996.5, "country": "Argentina", "iso2": "AR", "iso3": "ARG", "province": "Salta" }, "geometry": { "type": "Point", "coordinates": [ -63.81002, -22.55001 ] } },
{ "type": "Feature", "properties": { "city": "Presidencia Roque Saenz Pena", "city_ascii": "Presidencia Roque Saenz Pena", "lat": -26.7900069, "lng": -60.45001591, "pop": 75958.0, "country": "Argentina", "iso2": "AR", "iso3": "ARG", "province": "Chaco" }, "geometry": { "type": "Point", "coordinates": [ -60.45002, -26.79001 ] } },
{ "type": "Feature", "properties": { "city": "Villa Angela", "city_ascii": "Villa Angela", "lat": -27.58329181, "lng": -60.7166663, "pop": 30051.0, "country": "Argentina", "iso2": "AR", "iso3": "ARG", "province": "Chaco" }, "geometry": { "type": "Point", "coordinates": [ -60.71667, -27.58329 ] } },
{ "type": "Feature", "properties": { "city": "San Lorenzo", "city_ascii": "San Lorenzo", "lat": -28.12000324, "lng": -58.76998926, "pop": 25833.5, "country": "Argentina", "iso2": "AR", "iso3": "ARG", "province": "Corrientes" }, "geometry": { "type": "Point", "coordinates": [ -58.76999, -28.12 ] } },
{ "type": "Feature", "properties": { "city": "Corrientes", "city_ascii": "Corrientes", "lat": -27.48996417, "lng": -58.80998682, "pop": 339945.0, "country": "Argentina", "iso2": "AR", "iso3": "ARG", "province": "Corrientes" }, "geometry": { "type": "Point", "coordinates": [ -58.80999, -27.48996 ] } },
{ "type": "Feature", "properties": { "city": "Concepcion del Uruguay", "city_ascii": "Concepcion del Uruguay", "lat": -32.47999551, "lng": -58.23999577, "pop": 48275.0, "country": "Argentina", "iso2": "AR", "iso3": "ARG", "province": "Entre Ríos" }, "geometry": { "type": "Point", "coordinates": [ -58.24, -32.48 ] } },
{ "type": "Feature", "properties": { "city": "Victoria", "city_ascii": "Victoria", "lat": -32.61001341, "lng": -60.17998071, "pop": 20032.5, "country": "Argentina", "iso2": "AR", "iso3": "ARG", "province": "Entre Ríos" }, "geometry": { "type": "Point", "coordinates": [ -60.17998, -32.61001 ] } },
{ "type": "Feature", "properties": { "city": "Gualeguay", "city_ascii": "Gualeguay", "lat": -33.15003213, "lng": -59.34000615, "pop": 25913.0, "country": "Argentina", "iso2": "AR", "iso3": "ARG", "province": "Entre Ríos" }, "geometry": { "type": "Point", "coordinates": [ -59.34001, -33.15003 ] } },
{ "type": "Feature", "properties": { "city": "Parana", "city_ascii": "Parana", "lat": -31.73332273, "lng": -60.53334416, "pop": 226852.0, "country": "Argentina", "iso2": "AR", "iso3": "ARG", "province": "Entre Ríos" }, "geometry": { "type": "Point", "coordinates": [ -60.53334, -31.73332 ] } },
{ "type": "Feature", "properties": { "city": "Villa Constitucion", "city_ascii": "Villa Constitucion", "lat": -33.23002724, "lng": -60.35002202, "pop": 30282.5, "country": "Argentina", "iso2": "AR", "iso3": "ARG", "province": "Santa Fe" }, "geometry": { "type": "Point", "coordinates": [ -60.35002, -33.23003 ] } },
{ "type": "Feature", "properties": { "city": "Rafaela", "city_ascii": "Rafaela", "lat": -31.25004474, "lng": -61.49997766, "pop": 69649.0, "country": "Argentina", "iso2": "AR", "iso3": "ARG", "province": "Santa Fe" }, "geometry": { "type": "Point", "coordinates": [ -61.49998, -31.25004 ] } },
{ "type": "Feature", "properties": { "city": "Tunuyan", "city_ascii": "Tunuyan", "lat": -33.56618244, "lng": -69.01667647, "pop": 22834.0, "country": "Argentina", "iso2": "AR", "iso3": "ARG", "province": "Mendoza" }, "geometry": { "type": "Point", "coordinates": [ -69.01668, -33.56618 ] } },
{ "type": "Feature", "properties": { "city": "Zarate", "city_ascii": "Zarate", "lat": -34.08956134, "lng": -59.04002446, "pop": 86192.0, "country": "Argentina", "iso2": "AR", "iso3": "ARG", "province": "Ciudad de Buenos Aires" }, "geometry": { "type": "Point", "coordinates": [ -59.04002, -34.08956 ] } },
{ "type": "Feature", "properties": { "city": "Chascomus", "city_ascii": "Chascomus", "lat": -35.56621539, "lng": -58.01662439, "pop": 21054.0, "country": "Argentina", "iso2": "AR", "iso3": "ARG", "province": "Ciudad de Buenos Aires" }, "geometry": { "type": "Point", "coordinates": [ -58.01662, -35.56622 ] } },
{ "type": "Feature", "properties": { "city": "Junin", "city_ascii": "Junin", "lat": -34.58456989, "lng": -60.95887374, "pop": 66141.5, "country": "Argentina", "iso2": "AR", "iso3": "ARG", "province": "Ciudad de Buenos Aires" }, "geometry": { "type": "Point", "coordinates": [ -60.95887, -34.58457 ] } },
{ "type": "Feature", "properties": { "city": "La Plata", "city_ascii": "La Plata", "lat": -34.90961465, "lng": -57.95996118, "pop": 440388.5, "country": "Argentina", "iso2": "AR", "iso3": "ARG", "province": "Ciudad de Buenos Aires" }, "geometry": { "type": "Point", "coordinates": [ -57.95996, -34.90961 ] } },
{ "type": "Feature", "properties": { "city": "Pergamino", "city_ascii": "Pergamino", "lat": -33.89959878, "lng": -60.56998275, "pop": 71448.0, "country": "Argentina", "iso2": "AR", "iso3": "ARG", "province": "Ciudad de Buenos Aires" }, "geometry": { "type": "Point", "coordinates": [ -60.56998, -33.8996 ] } },
{ "type": "Feature", "properties": { "city": "Lujan", "city_ascii": "Lujan", "lat": -34.57960895, "lng": -59.10999435, "pop": 69744.5, "country": "Argentina", "iso2": "AR", "iso3": "ARG", "province": "Ciudad de Buenos Aires" }, "geometry": { "type": "Point", "coordinates": [ -59.10999, -34.57961 ] } },
{ "type": "Feature", "properties": { "city": "Azul", "city_ascii": "Azul", "lat": -36.7796297, "lng": -59.86999964, "pop": 43407.5, "country": "Argentina", "iso2": "AR", "iso3": "ARG", "province": "Ciudad de Buenos Aires" }, "geometry": { "type": "Point", "coordinates": [ -59.87, -36.77963 ] } },
{ "type": "Feature", "properties": { "city": "General Pico", "city_ascii": "General Pico", "lat": -35.65959471, "lng": -63.77001998, "pop": 46483.0, "country": "Argentina", "iso2": "AR", "iso3": "ARG", "province": "La Pampa" }, "geometry": { "type": "Point", "coordinates": [ -63.77002, -35.65959 ] } },
{ "type": "Feature", "properties": { "city": "Mercedes", "city_ascii": "Mercedes", "lat": -33.68958576, "lng": -65.4699679, "pop": 49345.0, "country": "Argentina", "iso2": "AR", "iso3": "ARG", "province": "San Luis" }, "geometry": { "type": "Point", "coordinates": [ -65.46997, -33.68959 ] } },
{ "type": "Feature", "properties": { "city": "Rio Tercero", "city_ascii": "Rio Tercero", "lat": -32.1796004, "lng": -64.12002446, "pop": 38049.5, "country": "Argentina", "iso2": "AR", "iso3": "ARG", "province": "Córdoba" }, "geometry": { "type": "Point", "coordinates": [ -64.12002, -32.1796 ] } },
{ "type": "Feature", "properties": { "city": "San Pedro", "city_ascii": "San Pedro", "lat": -24.21962116, "lng": -64.87000452, "pop": 55249.0, "country": "Argentina", "iso2": "AR", "iso3": "ARG", "province": "Jujuy" }, "geometry": { "type": "Point", "coordinates": [ -64.87, -24.21962 ] } },
{ "type": "Feature", "properties": { "city": "Libertador General San Martin", "city_ascii": "Libertador General San Martin", "lat": -23.81954222, "lng": -64.78998356, "pop": 47559.0, "country": "Argentina", "iso2": "AR", "iso3": "ARG", "province": "Jujuy" }, "geometry": { "type": "Point", "coordinates": [ -64.78998, -23.81954 ] } },
{ "type": "Feature", "properties": { "city": "Chilecito", "city_ascii": "Chilecito", "lat": -29.16552081, "lng": -67.49999903, "pop": 20343.0, "country": "Argentina", "iso2": "AR", "iso3": "ARG", "province": "La Rioja" }, "geometry": { "type": "Point", "coordinates": [ -67.5, -29.16552 ] } },
{ "type": "Feature", "properties": { "city": "Mercedes", "city_ascii": "Mercedes", "lat": -29.1795768, "lng": -58.0799797, "pop": 22872.5, "country": "Argentina", "iso2": "AR", "iso3": "ARG", "province": "Corrientes" }, "geometry": { "type": "Point", "coordinates": [ -58.07998, -29.17958 ] } },
{ "type": "Feature", "properties": { "city": "Concordia", "city_ascii": "Concordia", "lat": -31.38957111, "lng": -58.02998275, "pop": 132760.5, "country": "Argentina", "iso2": "AR", "iso3": "ARG", "province": "Entre Ríos" }, "geometry": { "type": "Point", "coordinates": [ -58.02998, -31.38957 ] } },
{ "type": "Feature", "properties": { "city": "Reconquista", "city_ascii": "Reconquista", "lat": -29.13952757, "lng": -59.65001306, "pop": 86640.5, "country": "Argentina", "iso2": "AR", "iso3": "ARG", "province": "Santa Fe" }, "geometry": { "type": "Point", "coordinates": [ -59.65001, -29.13953 ] } },
{ "type": "Feature", "properties": { "city": "Venado Tuerto", "city_ascii": "Venado Tuerto", "lat": -33.74958209, "lng": -61.97000065, "pop": 52079.0, "country": "Argentina", "iso2": "AR", "iso3": "ARG", "province": "Santa Fe" }, "geometry": { "type": "Point", "coordinates": [ -61.97, -33.74958 ] } },
{ "type": "Feature", "properties": { "city": "Esquel", "city_ascii": "Esquel", "lat": -42.90003131, "lng": -71.31661361, "pop": 20048.0, "country": "Argentina", "iso2": "AR", "iso3": "ARG", "province": "Chubut" }, "geometry": { "type": "Point", "coordinates": [ -71.31661, -42.90003 ] } },
{ "type": "Feature", "properties": { "city": "Olavarria", "city_ascii": "Olavarria", "lat": -36.90003579, "lng": -60.3299974, "pop": 65059.0, "country": "Argentina", "iso2": "AR", "iso3": "ARG", "province": "Ciudad de Buenos Aires" }, "geometry": { "type": "Point", "coordinates": [ -60.33, -36.90004 ] } },
{ "type": "Feature", "properties": { "city": "Tandil", "city_ascii": "Tandil", "lat": -37.32001015, "lng": -59.15004358, "pop": 84799.5, "country": "Argentina", "iso2": "AR", "iso3": "ARG", "province": "Ciudad de Buenos Aires" }, "geometry": { "type": "Point", "coordinates": [ -59.15004, -37.32001 ] } },
{ "type": "Feature", "properties": { "city": "Viedma", "city_ascii": "Viedma", "lat": -40.79995278, "lng": -63.0000153, "pop": 54031.0, "country": "Argentina", "iso2": "AR", "iso3": "ARG", "province": "Ciudad de Buenos Aires" }, "geometry": { "type": "Point", "coordinates": [ -63.00002, -40.79995 ] } },
{ "type": "Feature", "properties": { "city": "San Luis", "city_ascii": "San Luis", "lat": -33.29999713, "lng": -66.35001754, "pop": 308146.0, "country": "Argentina", "iso2": "AR", "iso3": "ARG", "province": "San Luis" }, "geometry": { "type": "Point", "coordinates": [ -66.35002, -33.3 ] } },
{ "type": "Feature", "properties": { "city": "Rio Cuarto", "city_ascii": "Rio Cuarto", "lat": -33.13003335, "lng": -64.34998458, "pop": 135959.5, "country": "Argentina", "iso2": "AR", "iso3": "ARG", "province": "Córdoba" }, "geometry": { "type": "Point", "coordinates": [ -64.34998, -33.13003 ] } },
{ "type": "Feature", "properties": { "city": "San Salvador de Jujuy", "city_ascii": "San Salvador de Jujuy", "lat": -24.1833443, "lng": -65.30002995, "pop": 258739.0, "country": "Argentina", "iso2": "AR", "iso3": "ARG", "province": "Jujuy" }, "geometry": { "type": "Point", "coordinates": [ -65.30003, -24.18334 ] } },
{ "type": "Feature", "properties": { "city": "San Ramon de la Nueva Oran", "city_ascii": "San Ramon de la Nueva Oran", "lat": -23.13999713, "lng": -64.32001225, "pop": 69461.5, "country": "Argentina", "iso2": "AR", "iso3": "ARG", "province": "Salta" }, "geometry": { "type": "Point", "coordinates": [ -64.32001, -23.14 ] } },
{ "type": "Feature", "properties": { "city": "Goya", "city_ascii": "Goya", "lat": -29.13999266, "lng": -59.26998458, "pop": 71274.5, "country": "Argentina", "iso2": "AR", "iso3": "ARG", "province": "Corrientes" }, "geometry": { "type": "Point", "coordinates": [ -59.26998, -29.13999 ] } },
{ "type": "Feature", "properties": { "city": "Rio Grande", "city_ascii": "Rio Grande", "lat": -53.79144552, "lng": -67.6989952, "pop": 31095.0, "country": "Argentina", "iso2": "AR", "iso3": "ARG", "province": "Tierra del Fuego" }, "geometry": { "type": "Point", "coordinates": [ -67.699, -53.79145 ] } },
{ "type": "Feature", "properties": { "city": "Ushuaia", "city_ascii": "Ushuaia", "lat": -54.79000324, "lng": -68.31000126000001, "pop": 50483.5, "country": "Argentina", "iso2": "AR", "iso3": "ARG", "province": "Tierra del Fuego" }, "geometry": { "type": "Point", "coordinates": [ -68.31, -54.79 ] } },
{ "type": "Feature", "properties": { "city": "San Rafael", "city_ascii": "San Rafael", "lat": -34.60002114, "lng": -68.33333317, "pop": 79523.5, "country": "Argentina", "iso2": "AR", "iso3": "ARG", "province": "Mendoza" }, "geometry": { "type": "Point", "coordinates": [ -68.33333, -34.60002 ] } },
{ "type": "Feature", "properties": { "city": "Necochea", "city_ascii": "Necochea", "lat": -38.55998615, "lng": -58.74999048, "pop": 70562.0, "country": "Argentina", "iso2": "AR", "iso3": "ARG", "province": "Ciudad de Buenos Aires" }, "geometry": { "type": "Point", "coordinates": [ -58.74999, -38.55999 ] } },
{ "type": "Feature", "properties": { "city": "Catamarca", "city_ascii": "Catamarca", "lat": -28.47000771, "lng": -65.78000065000001, "pop": 162586.0, "country": "Argentina", "iso2": "AR", "iso3": "ARG", "province": "Catamarca" }, "geometry": { "type": "Point", "coordinates": [ -65.78, -28.47001 ] } },
{ "type": "Feature", "properties": { "city": "La Rioja", "city_ascii": "La Rioja", "lat": -29.40995034, "lng": -66.84996118, "pop": 147130.0, "country": "Argentina", "iso2": "AR", "iso3": "ARG", "province": "La Rioja" }, "geometry": { "type": "Point", "coordinates": [ -66.84996, -29.40995 ] } },
{ "type": "Feature", "properties": { "city": "Santiago del Estero", "city_ascii": "Santiago del Estero", "lat": -27.78333128, "lng": -64.26665633, "pop": 317549.5, "country": "Argentina", "iso2": "AR", "iso3": "ARG", "province": "Santiago del Estero" }, "geometry": { "type": "Point", "coordinates": [ -64.26666, -27.78333 ] } },
{ "type": "Feature", "properties": { "city": "Resistencia", "city_ascii": "Resistencia", "lat": -27.45999184, "lng": -58.99002751, "pop": 368455.5, "country": "Argentina", "iso2": "AR", "iso3": "ARG", "province": "Chaco" }, "geometry": { "type": "Point", "coordinates": [ -58.99003, -27.45999 ] } },
{ "type": "Feature", "properties": { "city": "Gualeguaychu", "city_ascii": "Gualeguaychu", "lat": -33.02001422, "lng": -58.52000452, "pop": 55860.5, "country": "Argentina", "iso2": "AR", "iso3": "ARG", "province": "Entre Ríos" }, "geometry": { "type": "Point", "coordinates": [ -58.52, -33.02001 ] } },
{ "type": "Feature", "properties": { "city": "San Juan", "city_ascii": "San Juan", "lat": -31.55002643, "lng": -68.51998845, "pop": 433892.0, "country": "Argentina", "iso2": "AR", "iso3": "ARG", "province": "San Juan" }, "geometry": { "type": "Point", "coordinates": [ -68.51999, -31.55003 ] } },
{ "type": "Feature", "properties": { "city": "Rawson", "city_ascii": "Rawson", "lat": -43.3000069, "lng": -65.09999048, "pop": 25062.5, "country": "Argentina", "iso2": "AR", "iso3": "ARG", "province": "Chubut" }, "geometry": { "type": "Point", "coordinates": [ -65.09999, -43.30001 ] } },
{ "type": "Feature", "properties": { "city": "Neuquen", "city_ascii": "Neuquen", "lat": -38.95003986, "lng": -68.05999068, "pop": 213823.5, "country": "Argentina", "iso2": "AR", "iso3": "ARG", "province": "Neuquén" }, "geometry": { "type": "Point", "coordinates": [ -68.05999, -38.95004 ] } },
{ "type": "Feature", "properties": { "city": "Santa Rosa", "city_ascii": "Santa Rosa", "lat": -36.6200012, "lng": -64.29998763, "pop": 97693.5, "country": "Argentina", "iso2": "AR", "iso3": "ARG", "province": "La Pampa" }, "geometry": { "type": "Point", "coordinates": [ -64.29999, -36.62 ] } },
{ "type": "Feature", "properties": { "city": "San Carlos de Bariloche", "city_ascii": "San Carlos de Bariloche", "lat": -41.14995726, "lng": -71.29999964, "pop": 91953.0, "country": "Argentina", "iso2": "AR", "iso3": "ARG", "province": "Río Negro" }, "geometry": { "type": "Point", "coordinates": [ -71.3, -41.14996 ] } },
{ "type": "Feature", "properties": { "city": "Salta", "city_ascii": "Salta", "lat": -24.78335936, "lng": -65.41663782000001, "pop": 484646.0, "country": "Argentina", "iso2": "AR", "iso3": "ARG", "province": "Salta" }, "geometry": { "type": "Point", "coordinates": [ -65.41664, -24.78336 ] } },
{ "type": "Feature", "properties": { "city": "Tucumán", "city_ascii": "San Miguel de Tucuman", "lat": -26.81600014, "lng": -65.21662419, "pop": 678803.5, "country": "Argentina", "iso2": "AR", "iso3": "ARG", "province": "Tucumán" }, "geometry": { "type": "Point", "coordinates": [ -65.21662, -26.816 ] } },
{ "type": "Feature", "properties": { "city": "Formosa", "city_ascii": "Formosa", "lat": -26.17283527, "lng": -58.1828158, "pop": 202272.0, "country": "Argentina", "iso2": "AR", "iso3": "ARG", "province": "Formosa" }, "geometry": { "type": "Point", "coordinates": [ -58.18282, -26.17284 ] } },
{ "type": "Feature", "properties": { "city": "Santa Fe", "city_ascii": "Santa Fe", "lat": -31.62387205, "lng": -60.69000126, "pop": 393504.0, "country": "Argentina", "iso2": "AR", "iso3": "ARG", "province": "Santa Fe" }, "geometry": { "type": "Point", "coordinates": [ -60.69, -31.62387 ] } },
{ "type": "Feature", "properties": { "city": "Rosario", "city_ascii": "Rosario", "lat": -32.95112954, "lng": -60.66630762, "pop": 1094784.5, "country": "Argentina", "iso2": "AR", "iso3": "ARG", "province": "Santa Fe" }, "geometry": { "type": "Point", "coordinates": [ -60.66631, -32.95113 ] } },
{ "type": "Feature", "properties": { "city": "Rio Gallegos", "city_ascii": "Rio Gallegos", "lat": -51.63329669, "lng": -69.21658675, "pop": 77183.0, "country": "Argentina", "iso2": "AR", "iso3": "ARG", "province": "Santa Cruz" }, "geometry": { "type": "Point", "coordinates": [ -69.21659, -51.6333 ] } },
{ "type": "Feature", "properties": { "city": "Comodoro Rivadavia", "city_ascii": "Comodoro Rivadavia", "lat": -45.87003091, "lng": -67.49999903, "pop": 123291.0, "country": "Argentina", "iso2": "AR", "iso3": "ARG", "province": "Chubut" }, "geometry": { "type": "Point", "coordinates": [ -67.5, -45.87003 ] } },
{ "type": "Feature", "properties": { "city": "Mendoza", "city_ascii": "Mendoza", "lat": -32.88333006, "lng": -68.81661117, "pop": 827815.0, "country": "Argentina", "iso2": "AR", "iso3": "ARG", "province": "Mendoza" }, "geometry": { "type": "Point", "coordinates": [ -68.81661, -32.88333 ] } },
{ "type": "Feature", "properties": { "city": "Bahia Blanca", "city_ascii": "Bahia Blanca", "lat": -38.74002684, "lng": -62.2650214, "pop": 279041.0, "country": "Argentina", "iso2": "AR", "iso3": "ARG", "province": "Ciudad de Buenos Aires" }, "geometry": { "type": "Point", "coordinates": [ -62.26502, -38.74003 ] } },
{ "type": "Feature", "properties": { "city": "Mar del Plata", "city_ascii": "Mar del Plata", "lat": -38.00002033, "lng": -57.57998438, "pop": 554916.0, "country": "Argentina", "iso2": "AR", "iso3": "ARG", "province": "Ciudad de Buenos Aires" }, "geometry": { "type": "Point", "coordinates": [ -57.57998, -38.00002 ] } },
{ "type": "Feature", "properties": { "city": "Córdoba", "city_ascii": "Cordoba", "lat": -31.39995807, "lng": -64.18229456, "pop": 1374467.5, "country": "Argentina", "iso2": "AR", "iso3": "ARG", "province": "Córdoba" }, "geometry": { "type": "Point", "coordinates": [ -64.18229, -31.39996 ] } },
{ "type": "Feature", "properties": { "city": "Posadas", "city_ascii": "Posadas", "lat": -27.3578321, "lng": -55.88510735, "pop": 334589.5, "country": "Argentina", "iso2": "AR", "iso3": "ARG", "province": "Misiones" }, "geometry": { "type": "Point", "coordinates": [ -55.88511, -27.35783 ] } },
{ "type": "Feature", "properties": { "city": "Buenos Aires", "city_ascii": "Buenos Aires", "lat": -34.60250161, "lng": -58.39753137, "pop": 11862073.0, "country": "Argentina", "iso2": "AR", "iso3": "ARG", "province": "Ciudad de Buenos Aires" }, "geometry": { "type": "Point", "coordinates": [ -58.39753, -34.6025 ] } },
{ "type": "Feature", "properties": { "city": "Artashat", "city_ascii": "Artashat", "lat": 39.9538889, "lng": 44.5505556, "pop": 20562.0, "country": "Armenia", "iso2": "AM", "iso3": "ARM", "province": "Ararat" }, "geometry": { "type": "Point", "coordinates": [ 44.55056, 39.95389 ] } },
{ "type": "Feature", "properties": { "city": "Gavarr", "city_ascii": "Gavarr", "lat": 40.3588889, "lng": 45.1266667, "pop": 21680.0, "country": "Armenia", "iso2": "AM", "iso3": "ARM", "province": "Gegharkunik" }, "geometry": { "type": "Point", "coordinates": [ 45.12667, 40.35889 ] } },
{ "type": "Feature", "properties": { "city": "Gyumri", "city_ascii": "Gyumri", "lat": 40.78943402, "lng": 43.84749385, "pop": 140277.5, "country": "Armenia", "iso2": "AM", "iso3": "ARM", "province": "Shirak" }, "geometry": { "type": "Point", "coordinates": [ 43.84749, 40.78943 ] } },
{ "type": "Feature", "properties": { "city": "Vanadzor", "city_ascii": "Vanadzor", "lat": 40.81276593, "lng": 44.48828162, "pop": 89295.0, "country": "Armenia", "iso2": "AM", "iso3": "ARM", "province": "Lori" }, "geometry": { "type": "Point", "coordinates": [ 44.48828, 40.81277 ] } },
{ "type": "Feature", "properties": { "city": "Yerevan", "city_ascii": "Yerevan", "lat": 40.18115074, "lng": 44.51355139, "pop": 1097742.5, "country": "Armenia", "iso2": "AM", "iso3": "ARM", "province": "Erevan" }, "geometry": { "type": "Point", "coordinates": [ 44.51355, 40.18115 ] } },
{ "type": "Feature", "properties": { "city": "Oranjestad", "city_ascii": "Oranjestad", "lat": 12.53038373, "lng": -70.02899195000001, "pop": 50887.5, "country": "Aruba", "iso2": "AW", "iso3": "ABW", "province": null }, "geometry": { "type": "Point", "coordinates": [ -70.02899, 12.53038 ] } },
{ "type": "Feature", "properties": { "city": "Sunshine Coast", "city_ascii": "Sunshine Coast", "lat": -26.67998777, "lng": 153.0500272, "pop": 57215.5, "country": "Australia", "iso2": "AU", "iso3": "AUS", "province": "Queensland" }, "geometry": { "type": "Point", "coordinates": [ 153.05003, -26.67999 ] } },
{ "type": "Feature", "properties": { "city": "Bunbury", "city_ascii": "Bunbury", "lat": -33.34428384, "lng": 115.6502429, "pop": 26683.5, "country": "Australia", "iso2": "AU", "iso3": "AUS", "province": "Western Australia" }, "geometry": { "type": "Point", "coordinates": [ 115.65024, -33.34428 ] } },
{ "type": "Feature", "properties": { "city": "Queanbeyan", "city_ascii": "Queanbeyan", "lat": -35.3546004, "lng": 149.2113468, "pop": 32408.0, "country": "Australia", "iso2": "AU", "iso3": "AUS", "province": "Australian Capital Territory" }, "geometry": { "type": "Point", "coordinates": [ 149.21135, -35.3546 ] } },
{ "type": "Feature", "properties": { "city": "Tweed Heads", "city_ascii": "Tweed Heads", "lat": -28.1825834, "lng": 153.5466377, "pop": 33065.0, "country": "Australia", "iso2": "AU", "iso3": "AUS", "province": "New South Wales" }, "geometry": { "type": "Point", "coordinates": [ 153.54664, -28.18258 ] } },
{ "type": "Feature", "properties": { "city": "Nowra", "city_ascii": "Nowra", "lat": -34.88284625, "lng": 150.6000476, "pop": 61036.5, "country": "Australia", "iso2": "AU", "iso3": "AUS", "province": "New South Wales" }, "geometry": { "type": "Point", "coordinates": [ 150.60005, -34.88285 ] } },
{ "type": "Feature", "properties": { "city": "Katoomba", "city_ascii": "Katoomba", "lat": -33.70694904, "lng": 150.320013, "pop": 20334.5, "country": "Australia", "iso2": "AU", "iso3": "AUS", "province": "New South Wales" }, "geometry": { "type": "Point", "coordinates": [ 150.32001, -33.70695 ] } },
{ "type": "Feature", "properties": { "city": "Taree", "city_ascii": "Taree", "lat": -31.89760211, "lng": 152.4618461, "pop": 30131.5, "country": "Australia", "iso2": "AU", "iso3": "AUS", "province": "New South Wales" }, "geometry": { "type": "Point", "coordinates": [ 152.46185, -31.8976 ] } },
{ "type": "Feature", "properties": { "city": "Coffs Harbour", "city_ascii": "Coffs Harbour", "lat": -30.3070532, "lng": 153.1122973, "pop": 48961.0, "country": "Australia", "iso2": "AU", "iso3": "AUS", "province": "New South Wales" }, "geometry": { "type": "Point", "coordinates": [ 153.1123, -30.30705 ] } },
{ "type": "Feature", "properties": { "city": "Wagga Wagga", "city_ascii": "Wagga Wagga", "lat": -35.12215981, "lng": 147.3399882, "pop": 45549.0, "country": "Australia", "iso2": "AU", "iso3": "AUS", "province": "New South Wales" }, "geometry": { "type": "Point", "coordinates": [ 147.33999, -35.12216 ] } },
{ "type": "Feature", "properties": { "city": "Cranbourne", "city_ascii": "Cranbourne", "lat": -38.09960081, "lng": 145.2833695, "pop": 249955.0, "country": "Australia", "iso2": "AU", "iso3": "AUS", "province": "Victoria" }, "geometry": { "type": "Point", "coordinates": [ 145.28337, -38.0996 ] } },
{ "type": "Feature", "properties": { "city": "Ballarat", "city_ascii": "Ballarat", "lat": -37.55958209, "lng": 143.8400468, "pop": 73404.0, "country": "Australia", "iso2": "AU", "iso3": "AUS", "province": "Victoria" }, "geometry": { "type": "Point", "coordinates": [ 143.84005, -37.55958 ] } },
{ "type": "Feature", "properties": { "city": "Melton", "city_ascii": "Melton", "lat": -37.68954832, "lng": 144.570028, "pop": 29750.0, "country": "Australia", "iso2": "AU", "iso3": "AUS", "province": "Victoria" }, "geometry": { "type": "Point", "coordinates": [ 144.57003, -37.68955 ] } },
{ "type": "Feature", "properties": { "city": "Shepparton", "city_ascii": "Shepparton", "lat": -36.37458982, "lng": 145.3913732, "pop": 33430.5, "country": "Australia", "iso2": "AU", "iso3": "AUS", "province": "Victoria" }, "geometry": { "type": "Point", "coordinates": [ 145.39137, -36.37459 ] } },
{ "type": "Feature", "properties": { "city": "Caboolture", "city_ascii": "Caboolture", "lat": -27.08296059, "lng": 152.9499816, "pop": 26495.5, "country": "Australia", "iso2": "AU", "iso3": "AUS", "province": "Queensland" }, "geometry": { "type": "Point", "coordinates": [ 152.94998, -27.08296 ] } },
{ "type": "Feature", "properties": { "city": "Hervey Bay", "city_ascii": "Hervey Bay", "lat": -25.28870319, "lng": 152.8409444, "pop": 25114.0, "country": "Australia", "iso2": "AU", "iso3": "AUS", "province": "Queensland" }, "geometry": { "type": "Point", "coordinates": [ 152.84094, -25.2887 ] } },
{ "type": "Feature", "properties": { "city": "Albury", "city_ascii": "Albury", "lat": -36.06003538, "lng": 146.9200138, "pop": 68534.0, "country": "Australia", "iso2": "AU", "iso3": "AUS", "province": "New South Wales" }, "geometry": { "type": "Point", "coordinates": [ 146.92001, -36.06004 ] } },
{ "type": "Feature", "properties": { "city": "Port Macquarie", "city_ascii": "Port Macquarie", "lat": -31.44501992, "lng": 152.9186657, "pop": 42070.0, "country": "Australia", "iso2": "AU", "iso3": "AUS", "province": "New South Wales" }, "geometry": { "type": "Point", "coordinates": [ 152.91867, -31.44502 ] } },
{ "type": "Feature", "properties": { "city": "Tamworth", "city_ascii": "Tamworth", "lat": -31.10261188, "lng": 150.9171342, "pop": 35080.0, "country": "Australia", "iso2": "AU", "iso3": "AUS", "province": "New South Wales" }, "geometry": { "type": "Point", "coordinates": [ 150.91713, -31.10261 ] } },
{ "type": "Feature", "properties": { "city": "Lismore", "city_ascii": "Lismore", "lat": -28.81665322, "lng": 153.2931132, "pop": 28065.5, "country": "Australia", "iso2": "AU", "iso3": "AUS", "province": "New South Wales" }, "geometry": { "type": "Point", "coordinates": [ 153.29311, -28.81665 ] } },
{ "type": "Feature", "properties": { "city": "Wollongong", "city_ascii": "Wollongong", "lat": -34.41538125, "lng": 150.890004, "pop": 201319.5, "country": "Australia", "iso2": "AU", "iso3": "AUS", "province": "New South Wales" }, "geometry": { "type": "Point", "coordinates": [ 150.89, -34.41538 ] } },
{ "type": "Feature", "properties": { "city": "Mount Gambier", "city_ascii": "Mount Gambier", "lat": -37.83134845, "lng": 140.7650406, "pop": 21818.5, "country": "Australia", "iso2": "AU", "iso3": "AUS", "province": "South Australia" }, "geometry": { "type": "Point", "coordinates": [ 140.76504, -37.83135 ] } },
{ "type": "Feature", "properties": { "city": "Warrnambool", "city_ascii": "Warrnambool", "lat": -38.37999713, "lng": 142.4700012, "pop": 29882.0, "country": "Australia", "iso2": "AU", "iso3": "AUS", "province": "Victoria" }, "geometry": { "type": "Point", "coordinates": [ 142.47, -38.38 ] } },
{ "type": "Feature", "properties": { "city": "Mildura", "city_ascii": "Mildura", "lat": -34.18500771, "lng": 142.1513643, "pop": 33324.5, "country": "Australia", "iso2": "AU", "iso3": "AUS", "province": "Victoria" }, "geometry": { "type": "Point", "coordinates": [ 142.15136, -34.18501 ] } },
{ "type": "Feature", "properties": { "city": "Geelong", "city_ascii": "Geelong", "lat": -38.16749505, "lng": 144.3956335, "pop": 149336.0, "country": "Australia", "iso2": "AU", "iso3": "AUS", "province": "Victoria" }, "geometry": { "type": "Point", "coordinates": [ 144.39563, -38.1675 ] } },
{ "type": "Feature", "properties": { "city": "Caloundra", "city_ascii": "Caloundra", "lat": -26.80003213, "lng": 153.1333296, "pop": 33737.0, "country": "Australia", "iso2": "AU", "iso3": "AUS", "province": "Queensland" }, "geometry": { "type": "Point", "coordinates": [ 153.13333, -26.80003 ] } },
{ "type": "Feature", "properties": { "city": "Toowoomba", "city_ascii": "Toowoomba", "lat": -27.56453327, "lng": 151.9555204, "pop": 86711.0, "country": "Australia", "iso2": "AU", "iso3": "AUS", "province": "Queensland" }, "geometry": { "type": "Point", "coordinates": [ 151.95552, -27.56453 ] } },
{ "type": "Feature", "properties": { "city": "Bundaberg", "city_ascii": "Bundaberg", "lat": -24.87906411, "lng": 152.3508968, "pop": 46062.0, "country": "Australia", "iso2": "AU", "iso3": "AUS", "province": "Queensland" }, "geometry": { "type": "Point", "coordinates": [ 152.3509, -24.87906 ] } },
{ "type": "Feature", "properties": { "city": "Gladstone", "city_ascii": "Gladstone", "lat": -23.8533386, "lng": 151.2467264, "pop": 29055.0, "country": "Australia", "iso2": "AU", "iso3": "AUS", "province": "Queensland" }, "geometry": { "type": "Point", "coordinates": [ 151.24673, -23.85334 ] } },
{ "type": "Feature", "properties": { "city": "Mackay", "city_ascii": "Mackay", "lat": -21.14389158, "lng": 149.1500069, "pop": 66053.5, "country": "Australia", "iso2": "AU", "iso3": "AUS", "province": "Queensland" }, "geometry": { "type": "Point", "coordinates": [ 149.15001, -21.14389 ] } },
{ "type": "Feature", "properties": { "city": "Launceston", "city_ascii": "Launceston", "lat": -41.44983559, "lng": 147.1301818, "pop": 65106.5, "country": "Australia", "iso2": "AU", "iso3": "AUS", "province": "Tasmania" }, "geometry": { "type": "Point", "coordinates": [ 147.13018, -41.44984 ] } },
{ "type": "Feature", "properties": { "city": "Mandurah", "city_ascii": "Mandurah", "lat": -32.52348259, "lng": 115.7470567, "pop": 52866.0, "country": "Australia", "iso2": "AU", "iso3": "AUS", "province": "Western Australia" }, "geometry": { "type": "Point", "coordinates": [ 115.74706, -32.52348 ] } },
{ "type": "Feature", "properties": { "city": "Kalgoorlie", "city_ascii": "Kalgoorlie", "lat": -30.73539915, "lng": 121.4600175, "pop": 32058.0, "country": "Australia", "iso2": "AU", "iso3": "AUS", "province": "Western Australia" }, "geometry": { "type": "Point", "coordinates": [ 121.46002, -30.7354 ] } },
{ "type": "Feature", "properties": { "city": "Albany", "city_ascii": "Albany", "lat": -35.0169466, "lng": 117.8916048, "pop": 25179.0, "country": "Australia", "iso2": "AU", "iso3": "AUS", "province": "Western Australia" }, "geometry": { "type": "Point", "coordinates": [ 117.8916, -35.01695 ] } },
{ "type": "Feature", "properties": { "city": "Geraldton", "city_ascii": "Geraldton", "lat": -28.76663043, "lng": 114.5999711, "pop": 27065.0, "country": "Australia", "iso2": "AU", "iso3": "AUS", "province": "Western Australia" }, "geometry": { "type": "Point", "coordinates": [ 114.59997, -28.76663 ] } },
{ "type": "Feature", "properties": { "city": "Orange", "city_ascii": "Orange", "lat": -33.27999835, "lng": 149.0999841, "pop": 36708.0, "country": "Australia", "iso2": "AU", "iso3": "AUS", "province": "New South Wales" }, "geometry": { "type": "Point", "coordinates": [ 149.09998, -33.28 ] } },
{ "type": "Feature", "properties": { "city": "Dubbo", "city_ascii": "Dubbo", "lat": -32.25995726, "lng": 148.5973274, "pop": 30467.5, "country": "Australia", "iso2": "AU", "iso3": "AUS", "province": "New South Wales" }, "geometry": { "type": "Point", "coordinates": [ 148.59733, -32.25996 ] } },
{ "type": "Feature", "properties": { "city": "Armidale", "city_ascii": "Armidale", "lat": -30.51231199, "lng": 151.667476, "pop": 21793.5, "country": "Australia", "iso2": "AU", "iso3": "AUS", "province": "New South Wales" }, "geometry": { "type": "Point", "coordinates": [ 151.66748, -30.51231 ] } },
{ "type": "Feature", "properties": { "city": "Whyalla", "city_ascii": "Whyalla", "lat": -33.02502684, "lng": 137.5614119, "pop": 21102.0, "country": "Australia", "iso2": "AU", "iso3": "AUS", "province": "South Australia" }, "geometry": { "type": "Point", "coordinates": [ 137.56141, -33.02503 ] } },
{ "type": "Feature", "properties": { "city": "Bendigo", "city_ascii": "Bendigo", "lat": -36.75999266, "lng": 144.2800199, "pop": 68790.0, "country": "Australia", "iso2": "AU", "iso3": "AUS", "province": "Victoria" }, "geometry": { "type": "Point", "coordinates": [ 144.28002, -36.75999 ] } },
{ "type": "Feature", "properties": { "city": "Mount Isa", "city_ascii": "Mount Isa", "lat": -20.72386554, "lng": 139.490028, "pop": 27596.0, "country": "Australia", "iso2": "AU", "iso3": "AUS", "province": "Queensland" }, "geometry": { "type": "Point", "coordinates": [ 139.49003, -20.72387 ] } },
{ "type": "Feature", "properties": { "city": "Rockhampton", "city_ascii": "Rockhampton", "lat": -23.36391111, "lng": 150.5200008, "pop": 59024.5, "country": "Australia", "iso2": "AU", "iso3": "AUS", "province": "Queensland" }, "geometry": { "type": "Point", "coordinates": [ 150.52, -23.36391 ] } },
{ "type": "Feature", "properties": { "city": "Cairns", "city_ascii": "Cairns", "lat": -16.88783986, "lng": 145.7633309, "pop": 132107.0, "country": "Australia", "iso2": "AU", "iso3": "AUS", "province": "Queensland" }, "geometry": { "type": "Point", "coordinates": [ 145.76333, -16.88784 ] } },
{ "type": "Feature", "properties": { "city": "Gold Coast", "city_ascii": "Gold Coast", "lat": -28.08150429, "lng": 153.4482458, "pop": 429954.5, "country": "Australia", "iso2": "AU", "iso3": "AUS", "province": "Queensland" }, "geometry": { "type": "Point", "coordinates": [ 153.44825, -28.0815 ] } },
{ "type": "Feature", "properties": { "city": "Darwin", "city_ascii": "Darwin", "lat": -12.42535398, "lng": 130.8500386, "pop": 82973.0, "country": "Australia", "iso2": "AU", "iso3": "AUS", "province": "Northern Territory" }, "geometry": { "type": "Point", "coordinates": [ 130.85004, -12.42535 ] } },
{ "type": "Feature", "properties": { "city": "Alice Springs", "city_ascii": "Alice Springs", "lat": -23.70099648, "lng": 133.8800345, "pop": 26949.0, "country": "Australia", "iso2": "AU", "iso3": "AUS", "province": "Northern Territory" }, "geometry": { "type": "Point", "coordinates": [ 133.88003, -23.701 ] } },
{ "type": "Feature", "properties": { "city": "Canberra", "city_ascii": "Canberra", "lat": -35.28302855, "lng": 149.1290262, "pop": 280866.0, "country": "Australia", "iso2": "AU", "iso3": "AUS", "province": "Australian Capital Territory" }, "geometry": { "type": "Point", "coordinates": [ 149.12903, -35.28303 ] } },
{ "type": "Feature", "properties": { "city": "Newcastle", "city_ascii": "Newcastle", "lat": -32.84534788, "lng": 151.8150122, "pop": 816285.5, "country": "Australia", "iso2": "AU", "iso3": "AUS", "province": "New South Wales" }, "geometry": { "type": "Point", "coordinates": [ 151.81501, -32.84535 ] } },
{ "type": "Feature", "properties": { "city": "Adelaide", "city_ascii": "Adelaide", "lat": -34.93498777, "lng": 138.6000048, "pop": 990677.0, "country": "Australia", "iso2": "AU", "iso3": "AUS", "province": "South Australia" }, "geometry": { "type": "Point", "coordinates": [ 138.6, -34.93499 ] } },
{ "type": "Feature", "properties": { "city": "Townsville", "city_ascii": "Townsville", "lat": -19.24995034, "lng": 146.7699971, "pop": 129212.0, "country": "Australia", "iso2": "AU", "iso3": "AUS", "province": "Queensland" }, "geometry": { "type": "Point", "coordinates": [ 146.77, -19.24995 ] } },
{ "type": "Feature", "properties": { "city": "Brisbane", "city_ascii": "Brisbane", "lat": -27.45503091, "lng": 153.0350927, "pop": 1393176.5, "country": "Australia", "iso2": "AU", "iso3": "AUS", "province": "Queensland" }, "geometry": { "type": "Point", "coordinates": [ 153.03509, -27.45503 ] } },
{ "type": "Feature", "properties": { "city": "Hobart", "city_ascii": "Hobart", "lat": -42.85000853, "lng": 147.2950297, "pop": 64285.0, "country": "Australia", "iso2": "AU", "iso3": "AUS", "province": "Tasmania" }, "geometry": { "type": "Point", "coordinates": [ 147.29503, -42.85001 ] } },
{ "type": "Feature", "properties": { "city": "Perth", "city_ascii": "Perth", "lat": -31.95501463, "lng": 115.8399987, "pop": 1206108.0, "country": "Australia", "iso2": "AU", "iso3": "AUS", "province": "Western Australia" }, "geometry": { "type": "Point", "coordinates": [ 115.84, -31.95501 ] } },
{ "type": "Feature", "properties": { "city": "Melbourne", "city_ascii": "Melbourne", "lat": -37.82003131, "lng": 144.9750162, "pop": 2131812.5, "country": "Australia", "iso2": "AU", "iso3": "AUS", "province": "Victoria" }, "geometry": { "type": "Point", "coordinates": [ 144.97502, -37.82003 ] } },
{ "type": "Feature", "properties": { "city": "Sydney", "city_ascii": "Sydney", "lat": -33.92001097, "lng": 151.1851798, "pop": 4135711.0, "country": "Australia", "iso2": "AU", "iso3": "AUS", "province": "New South Wales" }, "geometry": { "type": "Point", "coordinates": [ 151.18518, -33.92001 ] } },
{ "type": "Feature", "properties": { "city": "Bregenz", "city_ascii": "Bregenz", "lat": 47.51669707, "lng": 9.766701588, "pop": 26928.0, "country": "Austria", "iso2": "AT", "iso3": "AUT", "province": "Vorarlberg" }, "geometry": { "type": "Point", "coordinates": [ 9.7667, 47.5167 ] } },
{ "type": "Feature", "properties": { "city": "Wiener Neustadt", "city_ascii": "Wiener Neustadt", "lat": 47.81598187, "lng": 16.24995357, "pop": 60621.5, "country": "Austria", "iso2": "AT", "iso3": "AUT", "province": "Niederösterreich" }, "geometry": { "type": "Point", "coordinates": [ 16.24995, 47.81598 ] } },
{ "type": "Feature", "properties": { "city": "Graz", "city_ascii": "Graz", "lat": 47.0777582, "lng": 15.41000484, "pop": 242780.0, "country": "Austria", "iso2": "AT", "iso3": "AUT", "province": "Steiermark" }, "geometry": { "type": "Point", "coordinates": [ 15.41, 47.07776 ] } },
{ "type": "Feature", "properties": { "city": "Klagenfurt", "city_ascii": "Klagenfurt", "lat": 46.62034426, "lng": 14.3100203, "pop": 88588.0, "country": "Austria", "iso2": "AT", "iso3": "AUT", "province": "Kärnten" }, "geometry": { "type": "Point", "coordinates": [ 14.31002, 46.62034 ] } },
{ "type": "Feature", "properties": { "city": "Linz", "city_ascii": "Linz", "lat": 48.31923281, "lng": 14.28878129, "pop": 265161.5, "country": "Austria", "iso2": "AT", "iso3": "AUT", "province": "Oberösterreich" }, "geometry": { "type": "Point", "coordinates": [ 14.28878, 48.31923 ] } },
{ "type": "Feature", "properties": { "city": "Passau", "city_ascii": "Passau", "lat": 48.56704714, "lng": 13.46660925, "pop": 50000.0, "country": "Austria", "iso2": "AT", "iso3": "AUT", "province": "Oberösterreich" }, "geometry": { "type": "Point", "coordinates": [ 13.46661, 48.56705 ] } },
{ "type": "Feature", "properties": { "city": "Salzburg", "city_ascii": "Salzburg", "lat": 47.81047833, "lng": 13.0400203, "pop": 178274.0, "country": "Austria", "iso2": "AT", "iso3": "AUT", "province": "Salzburg" }, "geometry": { "type": "Point", "coordinates": [ 13.04002, 47.81048 ] } },
{ "type": "Feature", "properties": { "city": "Innsbruck", "city_ascii": "Innsbruck", "lat": 47.28040733, "lng": 11.4099906, "pop": 133840.5, "country": "Austria", "iso2": "AT", "iso3": "AUT", "province": "Tirol" }, "geometry": { "type": "Point", "coordinates": [ 11.40999, 47.28041 ] } },
{ "type": "Feature", "properties": { "city": "Vienna", "city_ascii": "Vienna", "lat": 48.20001528, "lng": 16.36663896, "pop": 2065500.0, "country": "Austria", "iso2": "AT", "iso3": "AUT", "province": "Wien" }, "geometry": { "type": "Point", "coordinates": [ 16.36664, 48.20002 ] } },
{ "type": "Feature", "properties": { "city": "Ganca", "city_ascii": "Ganca", "lat": 40.68499595, "lng": 46.35002844, "pop": 301699.5, "country": "Azerbaijan", "iso2": "AZ", "iso3": "AZE", "province": "Ganca" }, "geometry": { "type": "Point", "coordinates": [ 46.35003, 40.685 ] } },
{ "type": "Feature", "properties": { "city": "Yevlax", "city_ascii": "Yevlax", "lat": 40.61719647, "lng": 47.15003129, "pop": 50014.0, "country": "Azerbaijan", "iso2": "AZ", "iso3": "AZE", "province": "Yevlax" }, "geometry": { "type": "Point", "coordinates": [ 47.15003, 40.6172 ] } },
{ "type": "Feature", "properties": { "city": "Sumqayt", "city_ascii": "Sumqayt", "lat": 40.58001528, "lng": 49.62998328, "pop": 272154.5, "country": "Azerbaijan", "iso2": "AZ", "iso3": "AZE", "province": "Sumqayit" }, "geometry": { "type": "Point", "coordinates": [ 49.62998, 40.58002 ] } },
{ "type": "Feature", "properties": { "city": "Ali Bayramli", "city_ascii": "Ali Bayramli", "lat": 39.93230288, "lng": 48.92025915, "pop": 70452.0, "country": "Azerbaijan", "iso2": "AZ", "iso3": "AZE", "province": "?li Bayramli" }, "geometry": { "type": "Point", "coordinates": [ 48.92026, 39.9323 ] } },
{ "type": "Feature", "properties": { "city": "Goycay", "city_ascii": "Goycay", "lat": 40.65342165, "lng": 47.74058956, "pop": 35031.5, "country": "Azerbaijan", "iso2": "AZ", "iso3": "AZE", "province": "Göyçay" }, "geometry": { "type": "Point", "coordinates": [ 47.74059, 40.65342 ] } },
{ "type": "Feature", "properties": { "city": "Lankaran", "city_ascii": "Lankaran", "lat": 38.7540027, "lng": 48.85106441, "pop": 60180.0, "country": "Azerbaijan", "iso2": "AZ", "iso3": "AZE", "province": "Astara" }, "geometry": { "type": "Point", "coordinates": [ 48.85106, 38.754 ] } },
{ "type": "Feature", "properties": { "city": "Saki", "city_ascii": "Saki", "lat": 41.19232932, "lng": 47.17054683, "pop": 63579.5, "country": "Azerbaijan", "iso2": "AZ", "iso3": "AZE", "province": "S?ki" }, "geometry": { "type": "Point", "coordinates": [ 47.17055, 41.19233 ] } },
{ "type": "Feature", "properties": { "city": "Stepanakert", "city_ascii": "Stepanakert", "lat": 39.81564333, "lng": 46.75196773, "pop": 57473.0, "country": "Azerbaijan", "iso2": "AZ", "iso3": "AZE", "province": "Xocali" }, "geometry": { "type": "Point", "coordinates": [ 46.75197, 39.81564 ] } },
{ "type": "Feature", "properties": { "city": "Kapan", "city_ascii": "Kapan", "lat": 39.20152061, "lng": 46.41498572, "pop": 37724.0, "country": "Azerbaijan", "iso2": "AZ", "iso3": "AZE", "province": "Z?ngilan" }, "geometry": { "type": "Point", "coordinates": [ 46.41499, 39.20152 ] } },
{ "type": "Feature", "properties": { "city": "Naxcivan", "city_ascii": "Naxcivan", "lat": 39.2092204, "lng": 45.41220455, "pop": 79771.0, "country": "Azerbaijan", "iso2": "AZ", "iso3": "AZE", "province": "Naxçivan" }, "geometry": { "type": "Point", "coordinates": [ 45.4122, 39.20922 ] } },
{ "type": "Feature", "properties": { "city": "Baku", "city_ascii": "Baku", "lat": 40.39527203, "lng": 49.86221716, "pop": 2007150.0, "country": "Azerbaijan", "iso2": "AZ", "iso3": "AZE", "province": "Baki" }, "geometry": { "type": "Point", "coordinates": [ 49.86222, 40.39527 ] } },
{ "type": "Feature", "properties": { "city": "Manama", "city_ascii": "Manama", "lat": 26.23613629, "lng": 50.58305172, "pop": 360697.0, "country": "Bahrain", "iso2": "BH", "iso3": "BHR", "province": null }, "geometry": { "type": "Point", "coordinates": [ 50.58305, 26.23614 ] } },
{ "type": "Feature", "properties": { "city": "Tangail", "city_ascii": "Tangail", "lat": 24.24997845, "lng": 89.92003048, "pop": 180144.0, "country": "Bangladesh", "iso2": "BD", "iso3": "BGD", "province": "Dhaka" }, "geometry": { "type": "Point", "coordinates": [ 89.92003, 24.24998 ] } },
{ "type": "Feature", "properties": { "city": "Sylhet", "city_ascii": "Sylhet", "lat": 24.90355613, "lng": 91.87360632, "pop": 237000.0, "country": "Bangladesh", "iso2": "BD", "iso3": "BGD", "province": "Sylhet" }, "geometry": { "type": "Point", "coordinates": [ 91.87361, 24.90356 ] } },
{ "type": "Feature", "properties": { "city": "Mymensingh", "city_ascii": "Mymensingh", "lat": 24.75041302, "lng": 90.3800024, "pop": 330126.0, "country": "Bangladesh", "iso2": "BD", "iso3": "BGD", "province": "Dhaka" }, "geometry": { "type": "Point", "coordinates": [ 90.38, 24.75041 ] } },
{ "type": "Feature", "properties": { "city": "Jamalpur", "city_ascii": "Jamalpur", "lat": 24.90042971, "lng": 89.95000281, "pop": 167900.0, "country": "Bangladesh", "iso2": "BD", "iso3": "BGD", "province": "Dhaka" }, "geometry": { "type": "Point", "coordinates": [ 89.95, 24.90043 ] } },
{ "type": "Feature", "properties": { "city": "Narayanganj", "city_ascii": "Narayanganj", "lat": 23.62040448, "lng": 90.49999508000001, "pop": 223622.0, "country": "Bangladesh", "iso2": "BD", "iso3": "BGD", "province": "Dhaka" }, "geometry": { "type": "Point", "coordinates": [ 90.5, 23.6204 ] } },
{ "type": "Feature", "properties": { "city": "Jessore", "city_ascii": "Jessore", "lat": 23.17043194, "lng": 89.19997107, "pop": 243987.0, "country": "Bangladesh", "iso2": "BD", "iso3": "BGD", "province": "Khulna" }, "geometry": { "type": "Point", "coordinates": [ 89.19997, 23.17043 ] } },
{ "type": "Feature", "properties": { "city": "Barisal", "city_ascii": "Barisal", "lat": 22.70040895, "lng": 90.37498979, "pop": 202242.0, "country": "Bangladesh", "iso2": "BD", "iso3": "BGD", "province": "Barisal" }, "geometry": { "type": "Point", "coordinates": [ 90.37499, 22.70041 ] } },
{ "type": "Feature", "properties": { "city": "Comilla", "city_ascii": "Comilla", "lat": 23.47041363, "lng": 91.16998002, "pop": 389411.0, "country": "Bangladesh", "iso2": "BD", "iso3": "BGD", "province": "Chittagong" }, "geometry": { "type": "Point", "coordinates": [ 91.16998, 23.47041 ] } },
{ "type": "Feature", "properties": { "city": "Pabna", "city_ascii": "Pabna", "lat": 24.00038129, "lng": 89.24999385, "pop": 137888.0, "country": "Bangladesh", "iso2": "BD", "iso3": "BGD", "province": "Rajshahi" }, "geometry": { "type": "Point", "coordinates": [ 89.24999, 24.00038 ] } },
{ "type": "Feature", "properties": { "city": "Nawabganj", "city_ascii": "Nawabganj", "lat": 24.58039756, "lng": 88.34999711, "pop": 142361.0, "country": "Bangladesh", "iso2": "BD", "iso3": "BGD", "province": "Rajshahi" }, "geometry": { "type": "Point", "coordinates": [ 88.35, 24.5804 ] } },
{ "type": "Feature", "properties": { "city": "Saidpur", "city_ascii": "Saidpur", "lat": 25.80042645, "lng": 88.99998328, "pop": 232209.0, "country": "Bangladesh", "iso2": "BD", "iso3": "BGD", "province": "Rajshahi" }, "geometry": { "type": "Point", "coordinates": [ 88.99998, 25.80043 ] } },
{ "type": "Feature", "properties": { "city": "Rangpur", "city_ascii": "Rangpur", "lat": 25.75001609, "lng": 89.28001786, "pop": 285564.0, "country": "Bangladesh", "iso2": "BD", "iso3": "BGD", "province": "Rajshahi" }, "geometry": { "type": "Point", "coordinates": [ 89.28002, 25.75002 ] } },
{ "type": "Feature", "properties": { "city": "Khulna", "city_ascii": "Khulna", "lat": 22.839987, "lng": 89.56000077, "pop": 1447669.5, "country": "Bangladesh", "iso2": "BD", "iso3": "BGD", "province": "Khulna" }, "geometry": { "type": "Point", "coordinates": [ 89.56, 22.83999 ] } },
{ "type": "Feature", "properties": { "city": "Rajshahi", "city_ascii": "Rajshahi", "lat": 24.37498374, "lng": 88.6050203, "pop": 755066.5, "country": "Bangladesh", "iso2": "BD", "iso3": "BGD", "province": "Rajshahi" }, "geometry": { "type": "Point", "coordinates": [ 88.60502, 24.37498 ] } },
{ "type": "Feature", "properties": { "city": "Dhaka", "city_ascii": "Dhaka", "lat": 23.72305971, "lng": 90.40857947000001, "pop": 9899167.0, "country": "Bangladesh", "iso2": "BD", "iso3": "BGD", "province": "Dhaka" }, "geometry": { "type": "Point", "coordinates": [ 90.40858, 23.72306 ] } },
{ "type": "Feature", "properties": { "city": "Chittagong", "city_ascii": "Chittagong", "lat": 22.32999229, "lng": 91.79996741, "pop": 4224611.0, "country": "Bangladesh", "iso2": "BD", "iso3": "BGD", "province": "Chittagong" }, "geometry": { "type": "Point", "coordinates": [ 91.79997, 22.32999 ] } },
{ "type": "Feature", "properties": { "city": "Bridgetown", "city_ascii": "Bridgetown", "lat": 13.10200258, "lng": -59.61652674, "pop": 143865.0, "country": "Barbados", "iso2": "BB", "iso3": "BRB", "province": "Saint Michael" }, "geometry": { "type": "Point", "coordinates": [ -59.61653, 13.102 ] } },
{ "type": "Feature", "properties": { "city": "Baranavichy", "city_ascii": "Baranavichy", "lat": 53.13684572, "lng": 26.01344031, "pop": 156514.5, "country": "Belarus", "iso2": "BY", "iso3": "BLR", "province": "Brest" }, "geometry": { "type": "Point", "coordinates": [ 26.01344, 53.13685 ] } },
{ "type": "Feature", "properties": { "city": "Polatsk", "city_ascii": "Polatsk", "lat": 55.48938946, "lng": 28.78598425, "pop": 79216.0, "country": "Belarus", "iso2": "BY", "iso3": "BLR", "province": "Vitsyebsk" }, "geometry": { "type": "Point", "coordinates": [ 28.78598, 55.48939 ] } },
{ "type": "Feature", "properties": { "city": "Maladzyechna", "city_ascii": "Maladzyechna", "lat": 54.31878908, "lng": 26.86532629, "pop": 96055.0, "country": "Belarus", "iso2": "BY", "iso3": "BLR", "province": "Minsk" }, "geometry": { "type": "Point", "coordinates": [ 26.86533, 54.31879 ] } },
{ "type": "Feature", "properties": { "city": "Pinsk", "city_ascii": "Pinsk", "lat": 52.12786338, "lng": 26.09405554, "pop": 120838.5, "country": "Belarus", "iso2": "BY", "iso3": "BLR", "province": "Brest" }, "geometry": { "type": "Point", "coordinates": [ 26.09406, 52.12786 ] } },
{ "type": "Feature", "properties": { "city": "Mazyr", "city_ascii": "Mazyr", "lat": 52.04595624, "lng": 29.27215613, "pop": 100936.0, "country": "Belarus", "iso2": "BY", "iso3": "BLR", "province": "Homyel'" }, "geometry": { "type": "Point", "coordinates": [ 29.27216, 52.04596 ] } },
{ "type": "Feature", "properties": { "city": "Mahilyow", "city_ascii": "Mahilyow", "lat": 53.89850466, "lng": 30.32465002, "pop": 343527.0, "country": "Belarus", "iso2": "BY", "iso3": "BLR", "province": "Mahilyow" }, "geometry": { "type": "Point", "coordinates": [ 30.32465, 53.8985 ] } },
{ "type": "Feature", "properties": { "city": "Babruysk", "city_ascii": "Babruysk", "lat": 53.12656211, "lng": 29.19278113, "pop": 212821.5, "country": "Belarus", "iso2": "BY", "iso3": "BLR", "province": "Mahilyow" }, "geometry": { "type": "Point", "coordinates": [ 29.19278, 53.12656 ] } },
{ "type": "Feature", "properties": { "city": "Orsha", "city_ascii": "Orsha", "lat": 54.51531455, "lng": 30.42154333, "pop": 130276.5, "country": "Belarus", "iso2": "BY", "iso3": "BLR", "province": "Vitsyebsk" }, "geometry": { "type": "Point", "coordinates": [ 30.42154, 54.51531 ] } },
{ "type": "Feature", "properties": { "city": "Lida", "city_ascii": "Lida", "lat": 53.88847943, "lng": 25.28464758, "pop": 99126.0, "country": "Belarus", "iso2": "BY", "iso3": "BLR", "province": "Hrodna" }, "geometry": { "type": "Point", "coordinates": [ 25.28465, 53.88848 ] } },
{ "type": "Feature", "properties": { "city": "Hrodna", "city_ascii": "Hrodna", "lat": 53.67787213, "lng": 23.83409013, "pop": 285867.0, "country": "Belarus", "iso2": "BY", "iso3": "BLR", "province": "Hrodna" }, "geometry": { "type": "Point", "coordinates": [ 23.83409, 53.67787 ] } },
{ "type": "Feature", "properties": { "city": "Barysaw", "city_ascii": "Barysaw", "lat": 54.22600405, "lng": 28.49215206, "pop": 127694.5, "country": "Belarus", "iso2": "BY", "iso3": "BLR", "province": "Minsk" }, "geometry": { "type": "Point", "coordinates": [ 28.49215, 54.226 ] } },
{ "type": "Feature", "properties": { "city": "Homyel", "city_ascii": "Homyel", "lat": 52.43001548, "lng": 31.00000932, "pop": 472337.5, "country": "Belarus", "iso2": "BY", "iso3": "BLR", "province": "Homyel'" }, "geometry": { "type": "Point", "coordinates": [ 31.00001, 52.43002 ] } },
{ "type": "Feature", "properties": { "city": "Vitsyebsk", "city_ascii": "Vitsyebsk", "lat": 55.18871014, "lng": 30.18533036, "pop": 333318.5, "country": "Belarus", "iso2": "BY", "iso3": "BLR", "province": "Vitsyebsk" }, "geometry": { "type": "Point", "coordinates": [ 30.18533, 55.18871 ] } },
{ "type": "Feature", "properties": { "city": "Brest", "city_ascii": "Brest", "lat": 52.09998395, "lng": 23.69998979, "pop": 266775.0, "country": "Belarus", "iso2": "BY", "iso3": "BLR", "province": "Brest" }, "geometry": { "type": "Point", "coordinates": [ 23.69999, 52.09998 ] } },
{ "type": "Feature", "properties": { "city": "Minsk", "city_ascii": "Minsk", "lat": 53.89997744, "lng": 27.56662716, "pop": 1691069.0, "country": "Belarus", "iso2": "BY", "iso3": "BLR", "province": "Minsk" }, "geometry": { "type": "Point", "coordinates": [ 27.56663, 53.89998 ] } },
{ "type": "Feature", "properties": { "city": "Mons", "city_ascii": "Mons", "lat": 50.44599911, "lng": 3.939003561, "pop": 91277.0, "country": "Belgium", "iso2": "BE", "iso3": "BEL", "province": "Hainaut" }, "geometry": { "type": "Point", "coordinates": [ 3.939, 50.446 ] } },
{ "type": "Feature", "properties": { "city": "Hasselt", "city_ascii": "Hasselt", "lat": 50.96400317, "lng": 5.483997561, "pop": 69222.0, "country": "Belgium", "iso2": "BE", "iso3": "BEL", "province": "Limburg" }, "geometry": { "type": "Point", "coordinates": [ 5.484, 50.964 ] } },
{ "type": "Feature", "properties": { "city": "Arlon", "city_ascii": "Arlon", "lat": 49.68330313, "lng": 5.816700472, "pop": 26179.0, "country": "Belgium", "iso2": "BE", "iso3": "BEL", "province": "Arlon" }, "geometry": { "type": "Point", "coordinates": [ 5.8167, 49.6833 ] } },
{ "type": "Feature", "properties": { "city": "Gent", "city_ascii": "Gent", "lat": 51.02999758, "lng": 3.700021931, "pop": 337914.5, "country": "Belgium", "iso2": "BE", "iso3": "BEL", "province": "East Flanders" }, "geometry": { "type": "Point", "coordinates": [ 3.70002, 51.03 ] } },
{ "type": "Feature", "properties": { "city": "Liege", "city_ascii": "Liege", "lat": 50.62999615, "lng": 5.580010537, "pop": 472803.0, "country": "Belgium", "iso2": "BE", "iso3": "BEL", "province": "Liege" }, "geometry": { "type": "Point", "coordinates": [ 5.58001, 50.63 ] } },
{ "type": "Feature", "properties": { "city": "Brugge", "city_ascii": "Brugge", "lat": 51.22037355, "lng": 3.230024779, "pop": 131589.0, "country": "Belgium", "iso2": "BE", "iso3": "BEL", "province": "Brugge" }, "geometry": { "type": "Point", "coordinates": [ 3.23002, 51.22037 ] } },
{ "type": "Feature", "properties": { "city": "Namur", "city_ascii": "Namur", "lat": 50.47039349, "lng": 4.870028034, "pop": 97155.5, "country": "Belgium", "iso2": "BE", "iso3": "BEL", "province": "Namur" }, "geometry": { "type": "Point", "coordinates": [ 4.87003, 50.47039 ] } },
{ "type": "Feature", "properties": { "city": "Charleroi", "city_ascii": "Charleroi", "lat": 50.42039654, "lng": 4.450001992, "pop": 272749.5, "country": "Belgium", "iso2": "BE", "iso3": "BEL", "province": "Charleroi" }, "geometry": { "type": "Point", "coordinates": [ 4.45, 50.4204 ] } },
{ "type": "Feature", "properties": { "city": "Antwerpen", "city_ascii": "Antwerpen", "lat": 51.22037355, "lng": 4.415017048, "pop": 689902.5, "country": "Belgium", "iso2": "BE", "iso3": "BEL", "province": "Antwerp" }, "geometry": { "type": "Point", "coordinates": [ 4.41502, 51.22037 ] } },
{ "type": "Feature", "properties": { "city": "Brussels", "city_ascii": "Brussels", "lat": 50.83331708, "lng": 4.333316608, "pop": 1381011.0, "country": "Belgium", "iso2": "BE", "iso3": "BEL", "province": "Brussels" }, "geometry": { "type": "Point", "coordinates": [ 4.33332, 50.83332 ] } },
{ "type": "Feature", "properties": { "city": "Belize City", "city_ascii": "Belize City", "lat": 17.49871096, "lng": -88.18837447, "pop": 62244.5, "country": "Belize", "iso2": "BZ", "iso3": "BLZ", "province": "Belize" }, "geometry": { "type": "Point", "coordinates": [ -88.18837, 17.49871 ] } },
{ "type": "Feature", "properties": { "city": "Lokossa", "city_ascii": "Lokossa", "lat": 6.615000092, "lng": 1.715004457, "pop": 86971.0, "country": "Benin", "iso2": "BJ", "iso3": "BEN", "province": "Mono" }, "geometry": { "type": "Point", "coordinates": [ 1.715, 6.615 ] } },
{ "type": "Feature", "properties": { "city": "Kandi", "city_ascii": "Kandi", "lat": 11.13036582, "lng": 2.940016641, "pop": 73483.0, "country": "Benin", "iso2": "BJ", "iso3": "BEN", "province": "Alibori" }, "geometry": { "type": "Point", "coordinates": [ 2.94002, 11.13037 ] } },
{ "type": "Feature", "properties": { "city": "Ouidah", "city_ascii": "Ouidah", "lat": 6.360372741, "lng": 2.089991006, "pop": 83503.0, "country": "Benin", "iso2": "BJ", "iso3": "BEN", "province": "Atlantique" }, "geometry": { "type": "Point", "coordinates": [ 2.08999, 6.36037 ] } },
{ "type": "Feature", "properties": { "city": "Abomey", "city_ascii": "Abomey", "lat": 7.190399596, "lng": 1.98999711, "pop": 82154.0, "country": "Benin", "iso2": "BJ", "iso3": "BEN", "province": "Zou" }, "geometry": { "type": "Point", "coordinates": [ 1.99, 7.1904 ] } },
{ "type": "Feature", "properties": { "city": "Natitingou", "city_ascii": "Natitingou", "lat": 10.32041526, "lng": 1.389982054, "pop": 65356.5, "country": "Benin", "iso2": "BJ", "iso3": "BEN", "province": "Atakora" }, "geometry": { "type": "Point", "coordinates": [ 1.38998, 10.32042 ] } },
{ "type": "Feature", "properties": { "city": "Djougou", "city_ascii": "Djougou", "lat": 9.700427265, "lng": 1.680041869, "pop": 152708.5, "country": "Benin", "iso2": "BJ", "iso3": "BEN", "province": "Donga" }, "geometry": { "type": "Point", "coordinates": [ 1.68004, 9.70043 ] } },
{ "type": "Feature", "properties": { "city": "Parakou", "city_ascii": "Parakou", "lat": 9.340009988, "lng": 2.620036172, "pop": 176303.0, "country": "Benin", "iso2": "BJ", "iso3": "BEN", "province": "Borgou" }, "geometry": { "type": "Point", "coordinates": [ 2.62004, 9.34001 ] } },
{ "type": "Feature", "properties": { "city": "Porto-Novo", "city_ascii": "Porto-Novo", "lat": 6.483310973, "lng": 2.616625528, "pop": 267084.0, "country": "Benin", "iso2": "BJ", "iso3": "BEN", "province": "Ouémé" }, "geometry": { "type": "Point", "coordinates": [ 2.61663, 6.48331 ] } },
{ "type": "Feature", "properties": { "city": "Cotonou", "city_ascii": "Cotonou", "lat": 6.400008564, "lng": 2.519990599, "pop": 726292.0, "country": "Benin", "iso2": "BJ", "iso3": "BEN", "province": "Ouémé" }, "geometry": { "type": "Point", "coordinates": [ 2.51999, 6.40001 ] } },
{ "type": "Feature", "properties": { "city": "Hamilton", "city_ascii": "Hamilton", "lat": 32.29419029, "lng": -64.78393742, "pop": 32910.0, "country": "Bermuda", "iso2": "BM", "iso3": "BMU", "province": null }, "geometry": { "type": "Point", "coordinates": [ -64.78394, 32.29419 ] } },
{ "type": "Feature", "properties": { "city": "Thimphu", "city_ascii": "Thimphu", "lat": 27.47298586, "lng": 89.63901404000001, "pop": 88930.5, "country": "Bhutan", "iso2": "BT", "iso3": "BTN", "province": "Thimphu" }, "geometry": { "type": "Point", "coordinates": [ 89.63901, 27.47299 ] } },
{ "type": "Feature", "properties": { "city": "Punata", "city_ascii": "Punata", "lat": -17.55000242, "lng": -65.83997115, "pop": 20758.5, "country": "Bolivia", "iso2": "BO", "iso3": "BOL", "province": "Cochabamba" }, "geometry": { "type": "Point", "coordinates": [ -65.83997, -17.55 ] } },
{ "type": "Feature", "properties": { "city": "Quillacollo", "city_ascii": "Quillacollo", "lat": -17.39998574, "lng": -66.27999597, "pop": 227052.0, "country": "Bolivia", "iso2": "BO", "iso3": "BOL", "province": "Cochabamba" }, "geometry": { "type": "Point", "coordinates": [ -66.28, -17.39999 ] } },
{ "type": "Feature", "properties": { "city": "Guayaramerin", "city_ascii": "Guayaramerin", "lat": -10.82999917, "lng": -65.4099974, "pop": 36008.0, "country": "Bolivia", "iso2": "BO", "iso3": "BOL", "province": "El Beni" }, "geometry": { "type": "Point", "coordinates": [ -65.41, -10.83 ] } },
{ "type": "Feature", "properties": { "city": "Santa Ana", "city_ascii": "Santa Ana", "lat": -13.7600012, "lng": -65.57996118, "pop": 234478.0, "country": "Bolivia", "iso2": "BO", "iso3": "BOL", "province": "El Beni" }, "geometry": { "type": "Point", "coordinates": [ -65.57996, -13.76 ] } },
{ "type": "Feature", "properties": { "city": "Viacha", "city_ascii": "Viacha", "lat": -16.65000568, "lng": -68.2999502, "pop": 34776.0, "country": "Bolivia", "iso2": "BO", "iso3": "BOL", "province": "La Paz" }, "geometry": { "type": "Point", "coordinates": [ -68.29995, -16.65001 ] } },
{ "type": "Feature", "properties": { "city": "Llallagua", "city_ascii": "Llallagua", "lat": -18.42002684, "lng": -66.63999984, "pop": 28069.0, "country": "Bolivia", "iso2": "BO", "iso3": "BOL", "province": "Potosí" }, "geometry": { "type": "Point", "coordinates": [ -66.64, -18.42003 ] } },
{ "type": "Feature", "properties": { "city": "Potosi", "city_ascii": "Potosi", "lat": -19.56956907, "lng": -65.75002832, "pop": 160576.0, "country": "Bolivia", "iso2": "BO", "iso3": "BOL", "province": "Potosí" }, "geometry": { "type": "Point", "coordinates": [ -65.75003, -19.56957 ] } },
{ "type": "Feature", "properties": { "city": "Villazon", "city_ascii": "Villazon", "lat": -22.07959674, "lng": -65.5999858, "pop": 33734.0, "country": "Bolivia", "iso2": "BO", "iso3": "BOL", "province": "Potosí" }, "geometry": { "type": "Point", "coordinates": [ -65.59999, -22.0796 ] } },
{ "type": "Feature", "properties": { "city": "Tupiza", "city_ascii": "Tupiza", "lat": -21.43958413, "lng": -65.72000431, "pop": 25499.5, "country": "Bolivia", "iso2": "BO", "iso3": "BOL", "province": "Potosí" }, "geometry": { "type": "Point", "coordinates": [ -65.72, -21.43958 ] } },
{ "type": "Feature", "properties": { "city": "Montero", "city_ascii": "Montero", "lat": -17.34960122, "lng": -63.26002527, "pop": 83821.0, "country": "Bolivia", "iso2": "BO", "iso3": "BOL", "province": "Santa Cruz" }, "geometry": { "type": "Point", "coordinates": [ -63.26003, -17.3496 ] } },
{ "type": "Feature", "properties": { "city": "San Ignacio", "city_ascii": "San Ignacio", "lat": -16.36960936, "lng": -60.96001062, "pop": 24480.0, "country": "Bolivia", "iso2": "BO", "iso3": "BOL", "province": "Santa Cruz" }, "geometry": { "type": "Point", "coordinates": [ -60.96001, -16.36961 ] } },
{ "type": "Feature", "properties": { "city": "Bermejo", "city_ascii": "Bermejo", "lat": -22.72958291, "lng": -64.34998458, "pop": 36544.0, "country": "Bolivia", "iso2": "BO", "iso3": "BOL", "province": "Tarija" }, "geometry": { "type": "Point", "coordinates": [ -64.34998, -22.72958 ] } },
{ "type": "Feature", "properties": { "city": "Cochabamba", "city_ascii": "Cochabamba", "lat": -17.41001097, "lng": -66.16997685, "pop": 804138.0, "country": "Bolivia", "iso2": "BO", "iso3": "BOL", "province": "Cochabamba" }, "geometry": { "type": "Point", "coordinates": [ -66.16998, -17.41001 ] } },
{ "type": "Feature", "properties": { "city": "Oruro", "city_ascii": "Oruro", "lat": -17.97995034, "lng": -67.12999577, "pop": 227592.5, "country": "Bolivia", "iso2": "BO", "iso3": "BOL", "province": "Oruro" }, "geometry": { "type": "Point", "coordinates": [ -67.13, -17.97995 ] } },
{ "type": "Feature", "properties": { "city": "Cobija", "city_ascii": "Cobija", "lat": -11.03334593, "lng": -68.73330876, "pop": 35511.0, "country": "Bolivia", "iso2": "BO", "iso3": "BOL", "province": "Pando" }, "geometry": { "type": "Point", "coordinates": [ -68.73331, -11.03335 ] } },
{ "type": "Feature", "properties": { "city": "Trinidad", "city_ascii": "Trinidad", "lat": -14.83337238, "lng": -64.89997685, "pop": 69333.5, "country": "Bolivia", "iso2": "BO", "iso3": "BOL", "province": "El Beni" }, "geometry": { "type": "Point", "coordinates": [ -64.89998, -14.83337 ] } },
{ "type": "Feature", "properties": { "city": "Tarija", "city_ascii": "Tarija", "lat": -21.51668537, "lng": -64.749986, "pop": 155513.0, "country": "Bolivia", "iso2": "BO", "iso3": "BOL", "province": "Tarija" }, "geometry": { "type": "Point", "coordinates": [ -64.74999, -21.51669 ] } },